"external_id","name","name_ar","name_en","name_ku","phone_number","whatsapp","governorate","governorate_ar","category","subcategory","address","city","website","email","facebook","instagram","description","latitude","longitude","rating","source"
"IQ000047","مرتضى الهاشمي","مرتضى الهاشمي","","","","","Baghdad","بغداد","amenity","bureau_de_change","المحمودية","المحمودية","","","","","","33.072082","44.353596","","OpenStreetMap"
"IQ000059","صيرفة الشمري","","","","","","Baghdad","بغداد","amenity","bureau_de_change","المحمودية","المحمودية","","","","","","33.056472","44.358222","","OpenStreetMap"
"IQ000060","كرار الطائي","كرار الطائي","","","","","Baghdad","بغداد","amenity","bureau_de_change","المحمودية","المحمودية","","","","","","33.054507","44.358269","","OpenStreetMap"
"IQ000061","سعد العبيدي","سعد العبيدي","","","","","Baghdad","بغداد","amenity","bureau_de_change","المحمودية","المحمودية","","","","","","33.054356","44.361233","","OpenStreetMap"
"IQ000066","الوسام","الوسام","","","","","Baghdad","بغداد","amenity","bureau_de_change","المحمودية","المحمودية","","","","","","33.058456","44.36545","","OpenStreetMap"
"IQ000067","رافدين المحمودية","رافدين المحمودية","","","","","Baghdad","بغداد","amenity","bureau_de_change","المحمودية","المحمودية","","","","","","33.05833","44.363214","","OpenStreetMap"
"IQ000068","مالك المعموري","مالك المعموري","","","","","Baghdad","بغداد","amenity","bureau_de_change","المحمودية","المحمودية","","","","","","33.057543","44.367603","","OpenStreetMap"
"IQ000069","برج الساحل","برج الساحل","","","","","Baghdad","بغداد","amenity","bureau_de_change","المحمودية","المحمودية","","","","","","33.059362","44.365833","","OpenStreetMap"
"IQ000070","الوان المحمودية","الوان المحمودية","","","","","Baghdad","بغداد","amenity","bureau_de_change","المحمودية","المحمودية","","","","","","33.056057","44.365178","","OpenStreetMap"
"IQ000071","الحاج صادق","الحاج صادق","","","","","Baghdad","بغداد","amenity","bureau_de_change","المحمودية","المحمودية","","","","","","33.058065","44.365408","","OpenStreetMap"
"IQ000072","كوثر المحمودية","كوثر المحمودية","","","","","Baghdad","بغداد","amenity","bureau_de_change","المحمودية","المحمودية","","","","","","33.056567","44.36327","","OpenStreetMap"
"IQ000073","نور المحمودية","نور المحمودية","","","","","Baghdad","بغداد","amenity","bureau_de_change","المحمودية","المحمودية","","","","","","33.057137","44.363561","","OpenStreetMap"
"IQ000074","احباب التقى","احباب التقى","","","","","Baghdad","بغداد","amenity","bureau_de_change","المحمودية","المحمودية","","","","","","33.056936","44.363321","","OpenStreetMap"
"IQ000075","ابو ظبي","ابو ظبي","","","","","Baghdad","بغداد","amenity","bureau_de_change","المحمودية","المحمودية","","","","","","33.057339","44.366943","","OpenStreetMap"
"IQ000076","صادق الخفاجي","صادق الخفاجي","","","","","Baghdad","بغداد","amenity","bureau_de_change","المحمودية","المحمودية","","","","","","33.056098","44.365474","","OpenStreetMap"
"IQ000077","مصطفى الربيعي","مصطفى الربيعي","","","","","Baghdad","بغداد","amenity","bureau_de_change","المحمودية","المحمودية","","","","","","33.05429","44.365196","","OpenStreetMap"
"IQ000081","ميسرة الرحمن","ميسرة الرحمن","","","","","Baghdad","بغداد","amenity","bureau_de_change","المحمودية","المحمودية","","","","","","33.06154","44.366087","","OpenStreetMap"
"IQ000085","صيدلية شفاء الشمس - Pharmacy Sfaii Alshams","","Pharmacy Sfaii Alshams","","","","Baghdad","بغداد","amenity","pharmacy","المحمودية","المحمودية","https://www.instagram.com/pharmacyshamshussein/profilecard/?igsh=MTZ0Zml5N28xZWRtbQ%3D%3D","","","","","33.066286","44.358348","","OpenStreetMap"
"IQ000089","ممدوح","ممدوح","","","","","Baghdad","بغداد","amenity","bureau_de_change","المحمودية","المحمودية","","","","","","33.068322","44.362269","","OpenStreetMap"
"IQ000090","محمد الربيعي","محمد الربيعي","","","","","Baghdad","بغداد","amenity","bureau_de_change","المحمودية","المحمودية","","","","","","33.068187","44.364346","","OpenStreetMap"
"IQ000103","مركز دفاع مدني الرشــــد","مركز دفاع مدني الرشــــد","مركز دفاع مدني الرشــــد","مركز دفاع مدني الرشــــد","","","Baghdad","بغداد","amenity","police","مجمع الطرق والجسور, Baghdad","Baghdad","","","","","","33.118371","44.356682","","OpenStreetMap"
"IQ000107","بئر السلام","بئر السلام","","","","","Baghdad","بغداد","amenity","bureau_de_change","Baghdad","Baghdad","","","","","","33.120166","44.366161","","OpenStreetMap"
"IQ000108","الروان2","الروان2","","","","","Baghdad","بغداد","amenity","bureau_de_change","Baghdad","Baghdad","","","","","","33.119977","44.367535","","OpenStreetMap"
"IQ000109","القوس","القوس","","","","","Baghdad","بغداد","amenity","bureau_de_change","Baghdad","Baghdad","","","","","","33.121139","44.366028","","OpenStreetMap"
"IQ000110","اليعسوب","اليعسوب","","","","","Baghdad","بغداد","amenity","bureau_de_change","Baghdad","Baghdad","","","","","","33.120065","44.367504","","OpenStreetMap"
"IQ000111","الفيض الوفير","الفيض الوفير","","","","","Baghdad","بغداد","amenity","bureau_de_change","Baghdad","Baghdad","","","","","","33.11994","44.367658","","OpenStreetMap"
"IQ000112","عسل الرشيد","عسل الرشيد","","","","","Baghdad","بغداد","amenity","bureau_de_change","Baghdad","Baghdad","","","","","","33.119847","44.366856","","OpenStreetMap"
"IQ000113","الروان","الروان","","","","","Baghdad","بغداد","amenity","bureau_de_change","Baghdad","Baghdad","","","","","","33.120134","44.366922","","OpenStreetMap"
"IQ000119","Toby","","","","","","Baghdad","بغداد","amenity","telephone","Baghdad","Baghdad","","","","","","33.117573","44.369569","","OpenStreetMap"
"IQ000123","تاج الرجال","تاج الرجال","","","","","Baghdad","بغداد","amenity","bureau_de_change","Baghdad","Baghdad","","","","","","33.119168","44.369759","","OpenStreetMap"
"IQ000124","نوارس الرشيد","نوارس الرشيد","","","","","Baghdad","بغداد","amenity","bureau_de_change","Baghdad","Baghdad","","","","","","33.120073","44.368046","","OpenStreetMap"
"IQ000139","باب الريان","","","","","","Baghdad","بغداد","amenity","place_of_worship","البيجه قرب بيت الشهيد الغدور حسام الحمد, Baghdad","Baghdad","","","","","","33.149206","44.515277","","OpenStreetMap"
"IQ000152","حساني","حساني","","","","","Baghdad","بغداد","amenity","bureau_de_change","المدائن","المدائن","","","","","","33.09677","44.5844","","OpenStreetMap"
"IQ000174","اسماعيل الحاج محمد الكاظم","","","","","","Baghdad","بغداد","amenity","nursing_home","Baghdad","Baghdad","","","","","","33.100215","44.581618","","OpenStreetMap"
"IQ000176","بشار كوم","بشار كوم","","","","","Baghdad","بغداد","amenity","bureau_de_change","المدائن","المدائن","","","","","","33.100248","44.579805","","OpenStreetMap"
"IQ000177","سلمان المحمدي","سلمان المحمدي","","","","","Baghdad","بغداد","amenity","bureau_de_change","المدائن","المدائن","","","","","","33.103174","44.577699","","OpenStreetMap"
"IQ000178","حبيب المصطفى","حبيب المصطفى","","","","","Baghdad","بغداد","amenity","bureau_de_change","المدائن","المدائن","","","","","","33.104728","44.578959","","OpenStreetMap"
"IQ000179","سما العالمية","سما العالمية","","","","","Baghdad","بغداد","amenity","bureau_de_change","المدائن","المدائن","","","","","","33.103797","44.580747","","OpenStreetMap"
"IQ000180","سما","سما","","","","","Baghdad","بغداد","amenity","bureau_de_change","المدائن","المدائن","","","","","","33.09982","44.580977","","OpenStreetMap"
"IQ000209","مكتبة خدمتك","مكتبة خدمتك","KhidmaTec","","","","Baghdad","بغداد","amenity","library","Baghdad","Baghdad","https://web.facebook.com/khidmaTec","","","","","33.145431","44.657501","","OpenStreetMap"
"IQ000223","عين العرب","عين العرب","","","","","Baghdad","بغداد","amenity","bureau_de_change","ابو غريب","ابو غريب","","","","","","33.306745","44.030686","","OpenStreetMap"
"IQ000224","سبايدر فون","سبايدر فون","","","","","Baghdad","بغداد","amenity","bureau_de_change","ابو غريب","ابو غريب","","","","","","33.307584","44.029348","","OpenStreetMap"
"IQ000225","النصر والسلام","النصر والسلام","","","","","Baghdad","بغداد","amenity","bureau_de_change","ابو غريب","ابو غريب","","","","","","33.306773","44.030658","","OpenStreetMap"
"IQ000227","ابهى","ابهى","","","","","Baghdad","بغداد","amenity","bureau_de_change","ابو غريب","ابو غريب","","","","","","33.304184","44.036125","","OpenStreetMap"
"IQ000248","ديفان","","Divan","","","","Baghdad","بغداد","amenity","restaurant","Baghdad","Baghdad","","","","","","33.244528","44.243103","","OpenStreetMap"
"IQ000252","صقر العراق","صقر العراق","","","","","Baghdad","بغداد","amenity","bureau_de_change","ابو غريب","ابو غريب","","","","","","33.292798","44.056923","","OpenStreetMap"
"IQ000259","محمد الماهر","محمد الماهر","","","","","Baghdad","بغداد","amenity","bureau_de_change","ابو غريب","ابو غريب","","","","","","33.295623","44.057983","","OpenStreetMap"
"IQ000262","الاكابر","الاكابر","","","","","Baghdad","بغداد","amenity","bureau_de_change","ابو غريب","ابو غريب","","","","","","33.300697","44.105496","","OpenStreetMap"
"IQ000274","ابن عباس","ابن عباس","","","","","Baghdad","بغداد","amenity","bureau_de_change","ابو غريب","ابو غريب","","","","","","33.304298","44.140553","","OpenStreetMap"
"IQ000275","الاحمد","الاحمد","","","","","Baghdad","بغداد","amenity","bureau_de_change","ابو غريب","ابو غريب","","","","","","33.321921","44.066244","","OpenStreetMap"
"IQ000276","المعامير","المعامير","","","","","Baghdad","بغداد","amenity","bureau_de_change","ابو غريب","ابو غريب","","","","","","33.316965","44.088081","","OpenStreetMap"
"IQ000290","الفيصل","الفيصل","","","","","Baghdad","بغداد","amenity","bureau_de_change","ابو غريب","ابو غريب","","","","","","33.307339","44.147201","","OpenStreetMap"
"IQ000292","الرحاب","الرحاب","","","","","Baghdad","بغداد","amenity","bureau_de_change","ابو غريب","ابو غريب","","","","","","33.303006","44.170211","","OpenStreetMap"
"IQ000302","الغسان","الغسان","","","","","Baghdad","بغداد","amenity","bureau_de_change","ابو غريب","ابو غريب","","","","","","33.305028","44.183491","","OpenStreetMap"
"IQ000322","مفتاح الخير","مفتاح الخير","","","","","Baghdad","بغداد","amenity","bureau_de_change","ابو غريب","ابو غريب","","","","","","33.305698","44.186586","","OpenStreetMap"
"IQ000323","الرحمن الرحيم","الرحمن الرحيم","","","","","Baghdad","بغداد","amenity","bureau_de_change","ابو غريب","ابو غريب","","","","","","33.305785","44.186159","","OpenStreetMap"
"IQ000325","جنة بغداد","جنة بغداد","","","","","Baghdad","بغداد","amenity","bureau_de_change","ابو غريب","ابو غريب","","","","","","33.305956","44.185991","","OpenStreetMap"
"IQ000326","بلاد الشام","بلاد الشام","","","","","Baghdad","بغداد","amenity","bureau_de_change","ابو غريب","ابو غريب","","","","","","33.305869","44.186243","","OpenStreetMap"
"IQ000327","بلال شاكر","بلال شاكر","","","","","Baghdad","بغداد","amenity","bureau_de_change","ابو غريب","ابو غريب","","","","","","33.305246","44.184721","","OpenStreetMap"
"IQ000352","الملكة","الملكة","","","","","Baghdad","بغداد","amenity","bureau_de_change","ابو غريب","ابو غريب","","","","","","33.315159","44.177581","","OpenStreetMap"
"IQ000354","وسام الذهبي","وسام الذهبي","","","","","Baghdad","بغداد","amenity","bureau_de_change","ابو غريب","ابو غريب","","","","","","33.309772","44.185478","","OpenStreetMap"
"IQ000358","سما الجامعة","سما الجامعة","","","","","Baghdad","بغداد","amenity","bureau_de_change","ابو غريب","ابو غريب","","","","","","33.347825","44.170249","","OpenStreetMap"
"IQ000361","مصطفى الامين 2","مصطفى الامين 2","","","","","Baghdad","بغداد","amenity","bureau_de_change","ابو غريب","ابو غريب","","","","","","33.313727","44.202067","","OpenStreetMap"
"IQ000362","طريق البراء","طريق البراء","","","","","Baghdad","بغداد","amenity","bureau_de_change","ابو غريب","ابو غريب","","","","","","33.31039","44.199717","","OpenStreetMap"
"IQ000370","ياسر العبيدي","ياسر العبيدي","","","","","Baghdad","بغداد","amenity","bureau_de_change","ابو غريب","ابو غريب","","","","","","33.316208","44.198549","","OpenStreetMap"
"IQ000371","شارع الزيتون","شارع الزيتون","","","","","Baghdad","بغداد","amenity","bureau_de_change","ابو غريب","ابو غريب","","","","","","33.316206","44.198575","","OpenStreetMap"
"IQ000386","دكتور محمد نجم التميمي","دكتور محمد نجم التميمي","","","","","Baghdad","بغداد","amenity","doctors","الدهله, Baghdad","Baghdad","","","","","","33.360908","44.239787","","OpenStreetMap"
"IQ000425","عطارية الكناني","عطارية الكناني","","","","","Baghdad","بغداد","amenity","pharmacy","Baghdad","Baghdad","","","","","","33.225268","44.337667","","OpenStreetMap"
"IQ000428","حنين الطيب","حنين الطيب","","","","","Baghdad","بغداد","amenity","bureau_de_change","بغداد","بغداد","","","","","","33.22654","44.336586","","OpenStreetMap"
"IQ000431","ثغر البصرة","ثغر البصرة","","","","","Baghdad","بغداد","amenity","bureau_de_change","بغداد","بغداد","","","","","","33.21744","44.34215","","OpenStreetMap"
"IQ000432","احمد الكعبي","احمد الكعبي","","","","","Baghdad","بغداد","amenity","bureau_de_change","بغداد","بغداد","","","","","","33.21801","44.342016","","OpenStreetMap"
"IQ000439","اضواء الشرطة","اضواء الشرطة","","","","","Baghdad","بغداد","amenity","bureau_de_change","بغداد","بغداد","","","","","","33.235035","44.313809","","OpenStreetMap"
"IQ000446","الصادق","الصادق","","","","","Baghdad","بغداد","amenity","bureau_de_change","بغداد","بغداد","","","","","","33.241096","44.314935","","OpenStreetMap"
"IQ000453","عيادة علي هوية للاسنان","عيادة علي هوية للاسنان","Dr.Ali Hawiya","","","","Baghdad","بغداد","amenity","dentist","الشرطة الرابعة, Baghdad","Baghdad","","","","","","33.242676","44.317858","","OpenStreetMap"
"IQ000456","عباس العربي","عباس العربي","","","","","Baghdad","بغداد","amenity","bureau_de_change","بغداد","بغداد","","","","","","33.239075","44.316279","","OpenStreetMap"
"IQ000457","العبادي","العبادي","","","","","Baghdad","بغداد","amenity","bureau_de_change","بغداد","بغداد","","","","","","33.239205","44.316147","","OpenStreetMap"
"IQ000458","التفاحة الذهبية","التفاحة الذهبية","","","","","Baghdad","بغداد","amenity","bureau_de_change","بغداد","بغداد","","","","","","33.237908","44.31889","","OpenStreetMap"
"IQ000459","يلو كارد","يلو كارد","","","","","Baghdad","بغداد","amenity","bureau_de_change","بغداد","بغداد","","","","","","33.237869","44.318537","","OpenStreetMap"
"IQ000460","حيدر فوزي","حيدر فوزي","","","","","Baghdad","بغداد","amenity","bureau_de_change","بغداد","بغداد","","","","","","33.239366","44.317026","","OpenStreetMap"
"IQ000461","محمد الصادق","محمد الصادق","","","","","Baghdad","بغداد","amenity","bureau_de_change","بغداد","بغداد","","","","","","33.239019","44.315871","","OpenStreetMap"
"IQ000462","مؤيد السلطان","مؤيد السلطان","","","","","Baghdad","بغداد","amenity","bureau_de_change","بغداد","بغداد","","","","","","33.240713","44.321428","","OpenStreetMap"
"IQ000479","معمل حداد ماجد","معمل حداد ماجد","Blacksmith Factory. Majid","","","","Baghdad","بغداد","amenity","library","شارع الشهداءو, Baghdad","Baghdad","","","","","","33.246035","44.304589","","OpenStreetMap"
"IQ000481","الماشان","الماشان","","","","","Baghdad","بغداد","amenity","bureau_de_change","بغداد","بغداد","","","","","","33.245525","44.304752","","OpenStreetMap"
"IQ000492","موفق الحسيني","موفق الحسيني","","","","","Baghdad","بغداد","amenity","bureau_de_change","بغداد","بغداد","","","","","","33.248603","44.313666","","OpenStreetMap"
"IQ000506","نور الضحى","نور الضحى","","","","","Baghdad","بغداد","amenity","bureau_de_change","بغداد","بغداد","","","","","","33.244766","44.318947","","OpenStreetMap"
"IQ000507","جنائن لارسا","جنائن لارسا","","","","","Baghdad","بغداد","amenity","bureau_de_change","بغداد","بغداد","","","","","","33.244217","44.318798","","OpenStreetMap"
"IQ000508","الصادق 2","الصادق 2","","","","","Baghdad","بغداد","amenity","bureau_de_change","بغداد","بغداد","","","","","","33.244457","44.318815","","OpenStreetMap"
"IQ000509","انمار المولى","انمار المولى","","","","","Baghdad","بغداد","amenity","bureau_de_change","بغداد","بغداد","","","","","","33.243702","44.318527","","OpenStreetMap"
"IQ000521","منفذ تشرين الشهداء","منفذ تشرين الشهداء","","","","","Baghdad","بغداد","amenity","bureau_de_change","Baghdad","Baghdad","","","","","","33.250288","44.31777","","OpenStreetMap"
"IQ000522","نسرين الشهداء","نسرين الشهداء","","","","","Baghdad","بغداد","amenity","bureau_de_change","بغداد","بغداد","","","","","","33.250187","44.317991","","OpenStreetMap"
"IQ000523","روعة فدك","روعة فدك","","","","","Baghdad","بغداد","amenity","bureau_de_change","بغداد","بغداد","","","","","","33.250546","44.318723","","OpenStreetMap"
"IQ000530","مثلجات باندا","","","","","","Baghdad","بغداد","amenity","ice_cream","حي الشباب, Baghdad","Baghdad","","","","","","33.232984","44.329941","","OpenStreetMap"
"IQ000540","صيدلية زينة الشفاء","صيدلية زينة الشفاء","zenat alshifaa pharmacy","","","","Baghdad","بغداد","amenity","pharmacy","شارع البداله, Baghdad","Baghdad","","","","","","33.235889","44.341438","","OpenStreetMap"
"IQ000543","مختبر البايولوجي","","biology lab","","","","Baghdad","بغداد","amenity","clinic","شارع البداله, Baghdad","Baghdad","","","","","","33.236561","44.339406","","OpenStreetMap"
"IQ000544","الرفيف","الرفيف","","","","","Baghdad","بغداد","amenity","bureau_de_change","بغداد","بغداد","","","","","","33.236442","44.339798","","OpenStreetMap"
"IQ000545","النرجس2","النرجس2","","","","","Baghdad","بغداد","amenity","bureau_de_change","بغداد","بغداد","","","","","","33.236361","44.341429","","OpenStreetMap"
"IQ000554","روضة وحضانة غندوره","","","","","","Baghdad","بغداد","amenity","kindergarten","Baghdad","Baghdad","","","","","","33.239821","44.329543","","OpenStreetMap"
"IQ000556","مطعم ززو","","zazo","","","","Baghdad","بغداد","amenity","fast_food","شارع البداله, Baghdad","Baghdad","","","","","","33.239928","44.334601","","OpenStreetMap"
"IQ000559","السهل الاخضر","السهل الاخضر","","","","","Baghdad","بغداد","amenity","bureau_de_change","بغداد","بغداد","","","","","","33.241837","44.331788","","OpenStreetMap"
"IQ000560","بريد الانتصار","بريد الانتصار","","","","","Baghdad","بغداد","amenity","bureau_de_change","بغداد","بغداد","","","","","","33.242488","44.33311","","OpenStreetMap"
"IQ000561","محمد التميمي","محمد التميمي","","","","","Baghdad","بغداد","amenity","bureau_de_change","بغداد","بغداد","","","","","","33.242329","44.331084","","OpenStreetMap"
"IQ000573","عيادات دنتل ستي التخصصية لطب الاسنان","عيادات دنتل ستي التخصصية لطب الاسنان","Dental City Clinics","","","","Baghdad","بغداد","amenity","dentist","شارع البداله, Baghdad","Baghdad","","","","","","33.237937","44.336946","","OpenStreetMap"
"IQ000579","قطر الندى","قطر الندى","","","","","Baghdad","بغداد","amenity","bureau_de_change","بغداد","بغداد","","","","","","33.236912","44.340782","","OpenStreetMap"
"IQ000580","ركن الطيف","ركن الطيف","","","","","Baghdad","بغداد","amenity","bureau_de_change","بغداد","بغداد","","","","","","33.238541","44.336827","","OpenStreetMap"
"IQ000581","قناديل الخليج","قناديل الخليج","","","","","Baghdad","بغداد","amenity","bureau_de_change","بغداد","بغداد","","","","","","33.237338","44.339277","","OpenStreetMap"
"IQ000583","مكتب الامير للسكائر و اراكيل","","","","","","Baghdad","بغداد","amenity","cafe","شارع البداله, Baghdad","Baghdad","","","","","","33.236722","44.33983","","OpenStreetMap"
"IQ000591","الرفيف2","الرفيف2","","","","","Baghdad","بغداد","amenity","bureau_de_change","بغداد","بغداد","","","","","","33.236135","44.342149","","OpenStreetMap"
"IQ000592","نبع الاحرار","نبع الاحرار","","","","","Baghdad","بغداد","amenity","bureau_de_change","بغداد","بغداد","","","","","","33.236032","44.342575","","OpenStreetMap"
"IQ000593","شمس الدخيل","شمس الدخيل","","","","","Baghdad","بغداد","amenity","bureau_de_change","بغداد","بغداد","","","","","","33.236222","44.341928","","OpenStreetMap"
"IQ000594","النرجس","النرجس","","","","","Baghdad","بغداد","amenity","bureau_de_change","بغداد","بغداد","","","","","","33.235655","44.342276","","OpenStreetMap"
"IQ000595","الطيف العالمي","الطيف العالمي","","","","","Baghdad","بغداد","amenity","bureau_de_change","بغداد","بغداد","","","","","","33.236178","44.342033","","OpenStreetMap"
"IQ000604","عيادة الزبيدي","","Alzobaydi clinic","","","","Baghdad","بغداد","amenity","dentist","شارع شهداء السيدية, Baghdad","Baghdad","","aws.hatam79@gmail.com","","","","33.232776","44.351656","","OpenStreetMap"
"IQ000605","صقور بغداد","صقور بغداد","","","","","Baghdad","بغداد","amenity","bureau_de_change","بغداد","بغداد","","","","","","33.232805","44.353456","","OpenStreetMap"
"IQ000666","عين بغداد","عين بغداد","","","","","Baghdad","بغداد","amenity","bureau_de_change","بغداد","بغداد","","","","","","33.251016","44.349313","","OpenStreetMap"
"IQ000697","الاسماء","الاسماء","","","","","Baghdad","بغداد","amenity","bureau_de_change","Baghdad","Baghdad","","","","","","33.193068","44.409804","","OpenStreetMap"
"IQ000698","هلا زيد","هلا زيد","","","","","Baghdad","بغداد","amenity","bureau_de_change","Baghdad","Baghdad","","","","","","33.194306","44.413193","","OpenStreetMap"
"IQ000700","يوسف الشيباني","يوسف الشيباني","","","","","Baghdad","بغداد","amenity","bureau_de_change","بغداد","بغداد","","","","","","33.207248","44.379657","","OpenStreetMap"
"IQ000703","خالد الربيعي","خالد الربيعي","Khalid Al Rubyai","","","","Baghdad","بغداد","amenity","bureau_de_change","بغداد","بغداد","","","","","","33.210768","44.380523","","OpenStreetMap"
"IQ000705","مستر شيف","مستر شيف","Chef Master","","","","Baghdad","بغداد","amenity","restaurant","شارع15, Baghdad","Baghdad","","","","","","33.207511","44.382863","","OpenStreetMap"
"IQ000710","اشور","اشور","","","","","Baghdad","بغداد","amenity","bureau_de_change","بغداد","بغداد","","","","","","33.214896","44.386096","","OpenStreetMap"
"IQ000711","عبدالله الربيعي","عبدالله الربيعي","","","","","Baghdad","بغداد","amenity","bureau_de_change","بغداد","بغداد","","","","","","33.213286","44.384961","","OpenStreetMap"
"IQ000712","اشور 2","اشور 2","","","","","Baghdad","بغداد","amenity","bureau_de_change","بغداد","بغداد","","","","","","33.212217","44.38617","","OpenStreetMap"
"IQ000713","الدورة","الدورة","","","","","Baghdad","بغداد","amenity","bureau_de_change","بغداد","بغداد","","","","","","33.211961","44.386267","","OpenStreetMap"
"IQ000714","مهيمن الربيعي","مهيمن الربيعي","","","","","Baghdad","بغداد","amenity","bureau_de_change","بغداد","بغداد","","","","","","33.212834","44.384766","","OpenStreetMap"
"IQ000716","رياض الجنة","رياض الجنة","","","","","Baghdad","بغداد","amenity","bureau_de_change","بغداد","بغداد","","","","","","33.216013","44.388323","","OpenStreetMap"
"IQ000723","ثمرة الازدهار","ثمرة الازدهار","","","","","Baghdad","بغداد","amenity","bureau_de_change","بغداد","بغداد","","","","","","33.218366","44.384181","","OpenStreetMap"
"IQ000734","عياده الابتسامة للطب الاسنان","","","","","","Baghdad","بغداد","amenity","dentist","Baghdad","Baghdad","","","","","","33.224513","44.382481","","OpenStreetMap"
"IQ000745","الفنجان","الفنجان","","","","","Baghdad","بغداد","amenity","bureau_de_change","بغداد","بغداد","","","","","","33.226616","44.391234","","OpenStreetMap"
"IQ000746","مركز دريم","مركز دريم","","","","","Baghdad","بغداد","amenity","bureau_de_change","بغداد","بغداد","","","","","","33.228763","44.388892","","OpenStreetMap"
"IQ000747","حي الصحة","حي الصحة","","","","","Baghdad","بغداد","amenity","bureau_de_change","بغداد","بغداد","","","","","","33.226564","44.389984","","OpenStreetMap"
"IQ000748","ضياء السلام","ضياء السلام","","","","","Baghdad","بغداد","amenity","bureau_de_change","بغداد","بغداد","","","","","","33.228532","44.388948","","OpenStreetMap"
"IQ000749","حسين ستار","حسين ستار","","","","","Baghdad","بغداد","amenity","bureau_de_change","بغداد","بغداد","","","","","","33.227191","44.38948","","OpenStreetMap"
"IQ000755","أسيا","أسيا","","","","","Baghdad","بغداد","amenity","bureau_de_change","بغداد","بغداد","","","","","","33.227661","44.399206","","OpenStreetMap"
"IQ000758","صيدلية عين زمزم","صيدلية عين زمزم","","","","","Baghdad","بغداد","amenity","pharmacy","شارع 60, Baghdad","Baghdad","","","","","","33.2257","44.4008","","OpenStreetMap"
"IQ000759","سبيدلنك لخدمات الانترنت","","speed link internet","","","","Baghdad","بغداد","amenity","internet_cafe","الدورة / الرواد, Baghdad","Baghdad","https://facebook.com/spdlink/","","","","","33.225802","44.404411","","OpenStreetMap"
"IQ000761","سالار","سالار","","","","","Baghdad","بغداد","amenity","bureau_de_change","بغداد","بغداد","","","","","","33.23247","44.355816","","OpenStreetMap"
"IQ000780","سندباد السيدية","سندباد السيدية","","","","","Baghdad","بغداد","amenity","bureau_de_change","بغداد","بغداد","","","","","","33.245878","44.359","","OpenStreetMap"
"IQ000781","نوار علي","نوار علي","","","","","Baghdad","بغداد","amenity","bureau_de_change","بغداد","بغداد","","","","","","33.249263","44.357997","","OpenStreetMap"
"IQ000803","د.طريف الغريري باطنية /اطفال","د.طريف الغريري باطنية /اطفال","Dr. Taref S. ALGurary","","","","Baghdad","بغداد","amenity","clinic","شارع علوة السيدية, Baghdad","Baghdad","","","","","","33.251686","44.358739","","OpenStreetMap"
"IQ000806","البشت","البشت","","","","","Baghdad","بغداد","amenity","bureau_de_change","بغداد","بغداد","","","","","","33.25165","44.357358","","OpenStreetMap"
"IQ000807","عطاء الغيث","عطاء الغيث","","","","","Baghdad","بغداد","amenity","bureau_de_change","بغداد","بغداد","","","","","","33.250149","44.35775","","OpenStreetMap"
"IQ000808","الدرفل","الدرفل","","","","","Baghdad","بغداد","amenity","bureau_de_change","بغداد","بغداد","","","","","","33.251236","44.357274","","OpenStreetMap"
"IQ000809","انوار السيدية","انوار السيدية","","","","","Baghdad","بغداد","amenity","bureau_de_change","بغداد","بغداد","","","","","","33.250522","44.357465","","OpenStreetMap"
"IQ000810","عالم الدولار","عالم الدولار","","","","","Baghdad","بغداد","amenity","bureau_de_change","بغداد","بغداد","","","","","","33.251773","44.358085","","OpenStreetMap"
"IQ000811","ركن السيدية","ركن السيدية","","","","","Baghdad","بغداد","amenity","bureau_de_change","بغداد","بغداد","","","","","","33.251765","44.35748","","OpenStreetMap"
"IQ000812","نبع الفيفاء","نبع الفيفاء","","","","","Baghdad","بغداد","amenity","bureau_de_change","بغداد","بغداد","","","","","","33.250736","44.357454","","OpenStreetMap"
"IQ000813","ديناري","ديناري","","","","","Baghdad","بغداد","amenity","bureau_de_change","بغداد","بغداد","","","","","","33.251312","44.358153","","OpenStreetMap"
"IQ000848","عيادة الدكتور سرمد عبد الباري لطب و تجميل الاسنان","","Sarmad's dental clinic","","","","Baghdad","بغداد","amenity","clinic","Baghdad","Baghdad","","","","","","33.252028","44.362113","","OpenStreetMap"
"IQ000857","الخير والبركة","الخير والبركة","","","","","Baghdad","بغداد","amenity","bureau_de_change","بغداد","بغداد","","","","","","33.244521","44.372234","","OpenStreetMap"
"IQ000860","منفذ الخير والبركه كي كارد","منفذ الخير والبركه كي كارد","","","","","Baghdad","بغداد","amenity","bureau_de_change","المهدية, Baghdad","Baghdad","","","","","","33.245939","44.37449","","OpenStreetMap"
"IQ000863","نخلة دبي","نخلة دبي","","","","","Baghdad","بغداد","amenity","bureau_de_change","بغداد","بغداد","","","","","","33.256075","44.370857","","OpenStreetMap"
"IQ000864","العلالي","العلالي","","","","","Baghdad","بغداد","amenity","bureau_de_change","بغداد","بغداد","","","","","","33.251121","44.370589","","OpenStreetMap"
"IQ000880","ادم علي","ادم علي","","","","","Baghdad","بغداد","amenity","bureau_de_change","بغداد","بغداد","","","","","","33.231322","44.388093","","OpenStreetMap"
"IQ000896","Nawa Restaurant","","","","","","Baghdad","بغداد","amenity","restaurant","830-25, بغداد","بغداد","","","","","","33.238927","44.386293","","OpenStreetMap"
"IQ000899","بنوك المشتل","بنوك المشتل","","","","","Baghdad","بغداد","amenity","bureau_de_change","بغداد","بغداد","","","","","","33.240565","44.394004","","OpenStreetMap"
"IQ000903","صيدلية مهند عاصم","صيدلية مهند عاصم","","","","","Baghdad","بغداد","amenity","pharmacy","شارع 60, Baghdad","Baghdad","","","","","","33.2307","44.3973","","OpenStreetMap"
"IQ000905","مكتبة النافورة","مكتبة النافورة","","","","","Baghdad","بغداد","amenity","library","شارع 60, Baghdad","Baghdad","","","","","","33.2351","44.396","","OpenStreetMap"
"IQ000908","عوينات النرجس","","Al narjs optical","","","","Baghdad","بغداد","amenity","clinic","شارع 60, Baghdad","Baghdad","","","","","","33.230143","44.397678","","OpenStreetMap"
"IQ000914","ريتاج الدورة","ريتاج الدورة","","","","","Baghdad","بغداد","amenity","bureau_de_change","بغداد","بغداد","","","","","","33.236589","44.40107","","OpenStreetMap"
"IQ000920","متجر","متجر","60CafeNet","","","","Baghdad","بغداد","amenity","cafe","شارع 60, Baghdad","Baghdad","","mohmmedthabet@live.com","","","","33.237524","44.395142","","OpenStreetMap"
"IQ000926","برج الدوحة","برج الدوحة","","","","","Baghdad","بغداد","amenity","bureau_de_change","بغداد","بغداد","","","","","","33.240305","44.399621","","OpenStreetMap"
"IQ000927","الشارقة الذهبية","الشارقة الذهبية","","","","","Baghdad","بغداد","amenity","bureau_de_change","بغداد","بغداد","","","","","","33.240481","44.399565","","OpenStreetMap"
"IQ000928","سيدار","سيدار","","","","","Baghdad","بغداد","amenity","bureau_de_change","بغداد","بغداد","","","","","","33.236805","44.39522","","OpenStreetMap"
"IQ000929","محبة اهالينا","محبة اهالينا","","","","","Baghdad","بغداد","amenity","bureau_de_change","بغداد","بغداد","","","","","","33.237171","44.395089","","OpenStreetMap"
"IQ000930","برج الدوحة 2","برج الدوحة 2","","","","","Baghdad","بغداد","amenity","bureau_de_change","بغداد","بغداد","","","","","","33.240214","44.398563","","OpenStreetMap"
"IQ000931","ابن السلطان","ابن السلطان","","","","","Baghdad","بغداد","amenity","bureau_de_change","بغداد","بغداد","","","","","","33.239741","44.398256","","OpenStreetMap"
"IQ000932","ايسار2","ايسار2","","","","","Baghdad","بغداد","amenity","bureau_de_change","بغداد","بغداد","","","","","","33.237345","44.394868","","OpenStreetMap"
"IQ000941","أسماك ولحوم أسيا","","","","","","Baghdad","بغداد","amenity","restaurant","شارع الميكانيك, Baghdad","Baghdad","","","","","","33.239472","44.403127","","OpenStreetMap"
"IQ000942","مدرسة الاكنان الابتدائية الاهلية","","Al - Akenan Primary School","","","","Baghdad","بغداد","amenity","school","شارع الميكانيك, Baghdad","Baghdad","","","","","","33.242159","44.401211","","OpenStreetMap"
"IQ000945","موج البحر 4","موج البحر 4","","","","","Baghdad","بغداد","amenity","bureau_de_change","بغداد","بغداد","","","","","","33.239683","44.402808","","OpenStreetMap"
"IQ000946","نظران","نظران","","","","","Baghdad","بغداد","amenity","bureau_de_change","بغداد","بغداد","","","","","","33.239329","44.403289","","OpenStreetMap"
"IQ000947","اسن الرماح","اسن الرماح","","","","","Baghdad","بغداد","amenity","bureau_de_change","بغداد","بغداد","","","","","","33.237354","44.400677","","OpenStreetMap"
"IQ000970","يافا الدورة","يافا الدورة","","","","","Baghdad","بغداد","amenity","bureau_de_change","بغداد","بغداد","","","","","","33.253283","44.383606","","OpenStreetMap"
"IQ000971","دنيا الصباح","دنيا الصباح","","","","","Baghdad","بغداد","amenity","bureau_de_change","بغداد","بغداد","","","","","","33.24972","44.387289","","OpenStreetMap"
"IQ000972","التضامن","التضامن","","","","","Baghdad","بغداد","amenity","bureau_de_change","بغداد","بغداد","","","","","","33.254787","44.382766","","OpenStreetMap"
"IQ000973","حمص","حمص","","","","","Baghdad","بغداد","amenity","bureau_de_change","بغداد","بغداد","","","","","","33.255036","44.385036","","OpenStreetMap"
"IQ000974","برج الاسد","برج الاسد","","","","","Baghdad","بغداد","amenity","bureau_de_change","بغداد","بغداد","","","","","","33.25458","44.382713","","OpenStreetMap"
"IQ000975","الامين الدورة","الامين الدورة","","","","","Baghdad","بغداد","amenity","bureau_de_change","بغداد","بغداد","","","","","","33.254207","44.383648","","OpenStreetMap"
"IQ000990","الروز","الروز","","","","","Baghdad","بغداد","amenity","bureau_de_change","بغداد","بغداد","","","","","","33.251056","44.390966","","OpenStreetMap"
"IQ000998","عوينات أمنية بغداد","عوينات أمنية بغداد","","","","","Baghdad","بغداد","amenity","clinic","الدورة شارع الطعمة, Baghdad","Baghdad","","","","","","33.246787","44.394853","","OpenStreetMap"
"IQ001002","اجود","اجود","","","","","Baghdad","بغداد","amenity","bureau_de_change","بغداد","بغداد","","","","","","33.246418","44.397514","","OpenStreetMap"
"IQ001003","جبل النور","جبل النور","","","","","Baghdad","بغداد","amenity","bureau_de_change","بغداد","بغداد","","","","","","33.24855","44.396384","","OpenStreetMap"
"IQ001004","البارق 2","البارق 2","","","","","Baghdad","بغداد","amenity","bureau_de_change","بغداد","بغداد","","","","","","33.247672","44.396793","","OpenStreetMap"
"IQ001014","الاوج 2","الاوج 2","","","","","Baghdad","بغداد","amenity","bureau_de_change","بغداد","بغداد","","","","","","33.247974","44.40596","","OpenStreetMap"
"IQ001015","الاتصال","الاتصال","","","","","Baghdad","بغداد","amenity","bureau_de_change","بغداد","بغداد","","","","","","33.24806","44.40591","","OpenStreetMap"
"IQ001042","الشيخ ابو يحيى","الشيخ ابو يحيى","","","","","Baghdad","بغداد","amenity","bureau_de_change","بغداد","بغداد","","","","","","33.250807","44.395569","","OpenStreetMap"
"IQ001043","زهور الدورة","زهور الدورة","","","","","Baghdad","بغداد","amenity","bureau_de_change","بغداد","بغداد","","","","","","33.256004","44.394326","","OpenStreetMap"
"IQ001044","حلول","حلول","","","","","Baghdad","بغداد","amenity","bureau_de_change","بغداد","بغداد","","","","","","33.250453","44.395604","","OpenStreetMap"
"IQ001045","المؤتمن","المؤتمن","","","","","Baghdad","بغداد","amenity","bureau_de_change","بغداد","بغداد","","","","","","33.251852","44.395","","OpenStreetMap"
"IQ001046","عراق الخير","عراق الخير","","","","","Baghdad","بغداد","amenity","bureau_de_change","بغداد","بغداد","","","","","","33.251748","44.39483","","OpenStreetMap"
"IQ001049","شركة الاحرار العربية","","","","","","Baghdad","بغداد","amenity","bureau_de_change","شارع الطعمه, Baghdad","Baghdad","","","","","","33.252005","44.395299","","OpenStreetMap"
"IQ001063","ماء زمزم","ماء زمزم","","","","","Baghdad","بغداد","amenity","bureau_de_change","بغداد","بغداد","","","","","","33.252492","44.403582","","OpenStreetMap"
"IQ001064","بشار","بشار","","","","","Baghdad","بغداد","amenity","bureau_de_change","بغداد","بغداد","","","","","","33.252861","44.403489","","OpenStreetMap"
"IQ001065","سدرة المنتهى","سدرة المنتهى","","","","","Baghdad","بغداد","amenity","bureau_de_change","بغداد","بغداد","","","","","","33.25317","44.403068","","OpenStreetMap"
"IQ001066","زمزم","زمزم","","","","","Baghdad","بغداد","amenity","bureau_de_change","بغداد","بغداد","","","","","","33.252011","44.403377","","OpenStreetMap"
"IQ001067","السلام العادل","السلام العادل","","","","","Baghdad","بغداد","amenity","bureau_de_change","بغداد","بغداد","","","","","","33.250335","44.404562","","OpenStreetMap"
"IQ001090","المغيث","المغيث","","","","","Baghdad","بغداد","amenity","bureau_de_change","بغداد","بغداد","","","","","","33.24391","44.407216","","OpenStreetMap"
"IQ001098","جبل النور 2","جبل النور 2","","","","","Baghdad","بغداد","amenity","bureau_de_change","بغداد","بغداد","","","","","","33.25459","44.408761","","OpenStreetMap"
"IQ001099","الصقر","الصقر","","","","","Baghdad","بغداد","amenity","bureau_de_change","بغداد","بغداد","","","","","","33.253845","44.408485","","OpenStreetMap"
"IQ001100","الجبل الازرق","الجبل الازرق","","","","","Baghdad","بغداد","amenity","bureau_de_change","بغداد","بغداد","","","","","","33.254147","44.409129","","OpenStreetMap"
"IQ001123","ايسار","ايسار","","","","","Baghdad","بغداد","amenity","bureau_de_change","بغداد","بغداد","","","","","","33.255197","44.422059","","OpenStreetMap"
"IQ001124","صادق الجمعية","صادق الجمعية","","","","","Baghdad","بغداد","amenity","bureau_de_change","بغداد","بغداد","","","","","","33.253346","44.422717","","OpenStreetMap"
"IQ001125","جوهرة الدورة","جوهرة الدورة","","","","","Baghdad","بغداد","amenity","bureau_de_change","بغداد","بغداد","","","","","","33.252584","44.422895","","OpenStreetMap"
"IQ001133","احمد الجبوري","احمد الجبوري","","","","","Baghdad","بغداد","amenity","bureau_de_change","بغداد","بغداد","","","","","","33.245697","44.434401","","OpenStreetMap"
"IQ001137","جامعة المشرق","","almashreq university","","","","Baghdad","بغداد","amenity","college","شارع مطار بغداد, Baghdad","Baghdad","http://www.almashrequniversity.com","","","","","33.274689","44.270784","","OpenStreetMap"
"IQ001141","بوخارست كافية","بوخارست كافية","","","","","Baghdad","بغداد","amenity","cafe","77FC+J78, بغداد","بغداد","","","","","","33.274168","44.270819","","OpenStreetMap"
"IQ001148","انوار الرشيد","انوار الرشيد","","","","","Baghdad","بغداد","amenity","bureau_de_change","بغداد","بغداد","","","","","","33.261597","44.288356","","OpenStreetMap"
"IQ001149","الامانة والديوان","الامانة والديوان","","","","","Baghdad","بغداد","amenity","bureau_de_change","بغداد","بغداد","","","","","","33.260724","44.288517","","OpenStreetMap"
"IQ001150","التهميم","التهميم","","","","","Baghdad","بغداد","amenity","bureau_de_change","بغداد","بغداد","","","","","","33.262353","44.287958","","OpenStreetMap"
"IQ001151","انوار الرائد","انوار الرائد","","","","","Baghdad","بغداد","amenity","bureau_de_change","بغداد","بغداد","","","","","","33.260716","44.2891","","OpenStreetMap"
"IQ001159","صيدلية جوهرة الجهاد","صيدلية جوهرة الجهاد","pharmacy jawharat aljihad","","","","Baghdad","بغداد","amenity","pharmacy","Baghdad","Baghdad","","","","","","33.265777","44.287245","","OpenStreetMap"
"IQ001166","الحافظ","الحافظ","","","","","Baghdad","بغداد","amenity","bureau_de_change","بغداد","بغداد","","","","","","33.265003","44.286624","","OpenStreetMap"
"IQ001167","بنونة","بنونة","","","","","Baghdad","بغداد","amenity","bureau_de_change","بغداد","بغداد","","","","","","33.26575","44.286466","","OpenStreetMap"
"IQ001169","الدر لدروس التقوية","الدر لدروس التقوية","Al Durr For Tutoring Courses","","","","Baghdad","بغداد","amenity","prep_school","Baghdad","Baghdad","","","https://www.facebook.com/100064056452692/","","","33.269281","44.28574","","OpenStreetMap"
"IQ001172","مكتبة الرزان","","Al-Razan library","","","","Baghdad","بغداد","amenity","library","الشارع الرئيسي ، مجاور ثانوية نور العلم, Baghdad","Baghdad","","","","","","33.256537","44.292846","","OpenStreetMap"
"IQ001196","ابو عمار","ابو عمار","","","","","Baghdad","بغداد","amenity","bureau_de_change","بغداد","بغداد","","","","","","33.269504","44.286121","","OpenStreetMap"
"IQ001197","المعمار","المعمار","","","","","Baghdad","بغداد","amenity","bureau_de_change","بغداد","بغداد","","","","","","33.273785","44.28501","","OpenStreetMap"
"IQ001198","سنتر البيجاوي","سنتر البيجاوي","","","","","Baghdad","بغداد","amenity","bureau_de_change","بغداد","بغداد","","","","","","33.270506","44.286285","","OpenStreetMap"
"IQ001199","البيجاوي","البيجاوي","","","","","Baghdad","بغداد","amenity","bureau_de_change","بغداد","بغداد","","","","","","33.270517","44.286156","","OpenStreetMap"
"IQ001209","المنتظر كي كارد","المنتظر كي كارد","","","","","Baghdad","بغداد","amenity","bureau_de_change","بغداد","بغداد","","","","","","33.273578","44.291514","","OpenStreetMap"
"IQ001210","الكوثر سنتر","الكوثر سنتر","","","","","Baghdad","بغداد","amenity","bureau_de_change","بغداد","بغداد","","","","","","33.273055","44.289974","","OpenStreetMap"
"IQ001218","الجهاد سنتر","الجهاد سنتر","","","","","Baghdad","بغداد","amenity","bureau_de_change","بغداد","بغداد","","","","","","33.269589","44.297566","","OpenStreetMap"
"IQ001225","يسر الحسين","يسر الحسين","","","","","Baghdad","بغداد","amenity","bureau_de_change","بغداد","بغداد","","","","","","33.282047","44.295674","","OpenStreetMap"
"IQ001228","روضة وحضانة ورود بغداد","روضة وحضانة ورود بغداد","Baghdad's Flowers Kindergarten","","","","Baghdad","بغداد","amenity","kindergarten","حي الحسين, Baghdad","Baghdad","","","","","","33.28222","44.297903","","OpenStreetMap"
"IQ001237","جامعة البيان","","albayan university","","","","Baghdad","بغداد","amenity","college","شارع مطار بغداد, Baghdad","Baghdad","https://albayan.edu.iq","","","","","33.284368","44.281666","","OpenStreetMap"
"IQ001245","نصر الريان","نصر الريان","","","","","Baghdad","بغداد","amenity","bureau_de_change","بغداد","بغداد","","","","","","33.295295","44.281332","","OpenStreetMap"
"IQ001262","علاء سالم","علاء سالم","","","","","Baghdad","بغداد","amenity","bureau_de_change","بغداد","بغداد","","","","","","33.283279","44.299526","","OpenStreetMap"
"IQ001263","المعمار 2","المعمار 2","","","","","Baghdad","بغداد","amenity","bureau_de_change","بغداد","بغداد","","","","","","33.282792","44.297877","","OpenStreetMap"
"IQ001272","عصائر وقهوة ريفريش","","","","","","Baghdad","بغداد","amenity","cafe","شارع العمل الشعبي, Baghdad","Baghdad","","faisalalrawi63@gmail.com","","","","33.291648","44.29305","","OpenStreetMap"
"IQ001306","روضة الشروق الاهلية","روضة الشروق الاهلية","","","","","Baghdad","بغداد","amenity","kindergarten","شارع المضيف, Baghdad","Baghdad","","ps.pro@yahoo.com","","","","33.298001","44.284623","","OpenStreetMap"
"IQ001315","سما الانيس","سما الانيس","","","","","Baghdad","بغداد","amenity","bureau_de_change","بغداد","بغداد","","","","","","33.300828","44.289007","","OpenStreetMap"
"IQ001316","البارق 3","البارق 3","","","","","Baghdad","بغداد","amenity","bureau_de_change","بغداد","بغداد","","","","","","33.300735","44.289022","","OpenStreetMap"
"IQ001317","الرؤوف","الرؤوف","","","","","Baghdad","بغداد","amenity","bureau_de_change","بغداد","بغداد","","","","","","33.301827","44.289059","","OpenStreetMap"
"IQ001318","العامرية","العامرية","","","","","Baghdad","بغداد","amenity","bureau_de_change","بغداد","بغداد","","","","","","33.300457","44.289102","","OpenStreetMap"
"IQ001319","سما العامرية","سما العامرية","","","","","Baghdad","بغداد","amenity","bureau_de_change","بغداد","بغداد","","","","","","33.298155","44.286984","","OpenStreetMap"
"IQ001320","محمد العبيدي","محمد العبيدي","","","","","Baghdad","بغداد","amenity","bureau_de_change","بغداد","بغداد","","","","","","33.30065","44.289052","","OpenStreetMap"
"IQ001321","بهاء الدين","بهاء الدين","","","","","Baghdad","بغداد","amenity","bureau_de_change","بغداد","بغداد","","","","","","33.297211","44.285438","","OpenStreetMap"
"IQ001322","المنير2","المنير2","","","","","Baghdad","بغداد","amenity","bureau_de_change","بغداد","بغداد","","","","","","33.297913","44.287493","","OpenStreetMap"
"IQ001323","سما العبيدي","سما العبيدي","","","","","Baghdad","بغداد","amenity","bureau_de_change","بغداد","بغداد","","","","","","33.300535","44.28909","","OpenStreetMap"
"IQ001365","ديار العرب","ديار العرب","","","","","Baghdad","بغداد","amenity","bureau_de_change","بغداد","بغداد","","","","","","33.301067","44.289426","","OpenStreetMap"
"IQ001366","سما العرب","سما العرب","","","","","Baghdad","بغداد","amenity","bureau_de_change","بغداد","بغداد","","","","","","33.300956","44.289471","","OpenStreetMap"
"IQ001367","سما الافاق","سما الافاق","","","","","Baghdad","بغداد","amenity","bureau_de_change","بغداد","بغداد","","","","","","33.301049","44.289656","","OpenStreetMap"
"IQ001368","الملتزم","الملتزم","","","","","Baghdad","بغداد","amenity","bureau_de_change","بغداد","بغداد","","","","","","33.300885","44.289515","","OpenStreetMap"
"IQ001369","الفنار الجديد","الفنار الجديد","","","","","Baghdad","بغداد","amenity","bureau_de_change","بغداد","بغداد","","","","","","33.298276","44.290501","","OpenStreetMap"
"IQ001370","ركن المنار","ركن المنار","","","","","Baghdad","بغداد","amenity","bureau_de_change","بغداد","بغداد","","","","","","33.299917","44.293183","","OpenStreetMap"
"IQ001371","الترنج","الترنج","","","","","Baghdad","بغداد","amenity","bureau_de_change","بغداد","بغداد","","","","","","33.300815","44.289745","","OpenStreetMap"
"IQ001389","حجر كافية","","","","","","Baghdad","بغداد","amenity","cafe","شارع العمل الشعبي, بغداد","بغداد","","","","","","33.299666","44.290038","","OpenStreetMap"
"IQ001398","بيت الراشد","بيت الراشد","","","","","Baghdad","بغداد","amenity","bureau_de_change","بغداد","بغداد","","","","","","33.300667","44.297635","","OpenStreetMap"
"IQ001399","الفهدان","الفهدان","","","","","Baghdad","بغداد","amenity","bureau_de_change","بغداد","بغداد","","","","","","33.298513","44.298148","","OpenStreetMap"
"IQ001400","العامرية2","العامرية2","","","","","Baghdad","بغداد","amenity","bureau_de_change","بغداد","بغداد","","","","","","33.298637","44.298347","","OpenStreetMap"
"IQ001436","انوار العامرية","انوار العامرية","","","","","Baghdad","بغداد","amenity","bureau_de_change","بغداد","بغداد","","","","","","33.30422","44.296136","","OpenStreetMap"
"IQ001448","عبدالله الناصر","عبدالله الناصر","","","","","Baghdad","بغداد","amenity","bureau_de_change","بغداد","بغداد","","","","","","33.263329","44.303702","","OpenStreetMap"
"IQ001450","صيدلية سنار وحيد الحداد","","sanar pharmscy","","","","Baghdad","بغداد","amenity","pharmacy","حي الجهاد- الرفاق/ شارع المدارس, Baghdad","Baghdad","","","","","","33.266614","44.304891","","OpenStreetMap"
"IQ001466","دلتا الرافدين","دلتا الرافدين","","","","","Baghdad","بغداد","amenity","bureau_de_change","بغداد","بغداد","","","","","","33.262318","44.328375","","OpenStreetMap"
"IQ001484","الود","الود","","","","","Baghdad","بغداد","amenity","bureau_de_change","بغداد","بغداد","","","","","","33.269129","44.325814","","OpenStreetMap"
"IQ001485","سيد عصام","سيد عصام","","","","","Baghdad","بغداد","amenity","bureau_de_change","بغداد","بغداد","","","","","","33.266186","44.326352","","OpenStreetMap"
"IQ001486","ابراج قرطاج","ابراج قرطاج","","","","","Baghdad","بغداد","amenity","bureau_de_change","بغداد","بغداد","","","","","","33.266492","44.326769","","OpenStreetMap"
"IQ001488","كرز كار ايس كريم","","Karaz car ice cream","","","","Baghdad","بغداد","amenity","ice_cream","Baghdad","Baghdad","","","","","","33.270965","44.308339","","OpenStreetMap"
"IQ001489","الشدن","الشدن","","","","","Baghdad","بغداد","amenity","bureau_de_change","بغداد","بغداد","","","","","","33.270941","44.312112","","OpenStreetMap"
"IQ001490","زهرة الحياة","زهرة الحياة","","","","","Baghdad","بغداد","amenity","bureau_de_change","بغداد","بغداد","","","","","","33.272658","44.314123","","OpenStreetMap"
"IQ001504","زينة الحياة","زينة الحياة","","","","","Baghdad","بغداد","amenity","bureau_de_change","بغداد","بغداد","","","","","","33.272411","44.316824","","OpenStreetMap"
"IQ001510","سما العامل","سما العامل","","","","","Baghdad","بغداد","amenity","bureau_de_change","بغداد","بغداد","","","","","","33.273173","44.324204","","OpenStreetMap"
"IQ001519","مطعم مرمريز","","","العربي","","","Baghdad","بغداد","amenity","restaurant","7, Baghdad","Baghdad","","","","","","33.282066","44.326738","","OpenStreetMap"
"IQ001521","المصقع","المصقع","","","","","Baghdad","بغداد","amenity","bureau_de_change","بغداد","بغداد","","","","","","33.280419","44.327374","","OpenStreetMap"
"IQ001522","الامين الضامن","الامين الضامن","","","","","Baghdad","بغداد","amenity","bureau_de_change","بغداد","بغداد","","","","","","33.27602","44.325361","","OpenStreetMap"
"IQ001535","شركة البلبل","شركة البلبل","","","","","Baghdad","بغداد","amenity","bureau_de_change","بغداد","بغداد","","","","","","33.265532","44.337461","","OpenStreetMap"
"IQ001536","ماشاء الله","ماشاء الله","","","","","Baghdad","بغداد","amenity","bureau_de_change","بغداد","بغداد","","","","","","33.265589","44.337531","","OpenStreetMap"
"IQ001537","نرجس البياع","نرجس البياع","","","","","Baghdad","بغداد","amenity","bureau_de_change","بغداد","بغداد","","","","","","33.263885","44.340585","","OpenStreetMap"
"IQ001538","يافا","يافا","","","","","Baghdad","بغداد","amenity","bureau_de_change","بغداد","بغداد","","","","","","33.26485","44.339176","","OpenStreetMap"
"IQ001539","المشور","المشور","","","","","Baghdad","بغداد","amenity","bureau_de_change","بغداد","بغداد","","","","","","33.264337","44.340861","","OpenStreetMap"
"IQ001540","سما العابد","سما العابد","","","","","Baghdad","بغداد","amenity","bureau_de_change","بغداد","بغداد","","","","","","33.264879","44.339092","","OpenStreetMap"
"IQ001541","نرجس الحسين","نرجس الحسين","","","","","Baghdad","بغداد","amenity","bureau_de_change","بغداد","بغداد","","","","","","33.265191","44.338249","","OpenStreetMap"
"IQ001542","وتوت","وتوت","","","","","Baghdad","بغداد","amenity","bureau_de_change","بغداد","بغداد","","","","","","33.264916","44.339185","","OpenStreetMap"
"IQ001543","جبار الصيرفي","جبار الصيرفي","","","","","Baghdad","بغداد","amenity","bureau_de_change","بغداد","بغداد","","","","","","33.265462","44.337941","","OpenStreetMap"
"IQ001556","ثانوية الاقصى الاهلية للبنين","ثانوية الاقصى الاهلية للبنين","","","","","Baghdad","بغداد","amenity","school","شارع 40, Baghdad","Baghdad","https://www.facebook.com/AqsaHighSchoolprivate/","","","","","33.256568","44.353205","","OpenStreetMap"
"IQ001563","اينانا لطب الاسنان","","Enana Dental clinic","","","","Baghdad","بغداد","amenity","dentist","شارع التجاري, Baghdad","Baghdad","","","","","","33.260732","44.353459","","OpenStreetMap"
"IQ001567","سلوان التجاري","سلوان التجاري","","","","","Baghdad","بغداد","amenity","bureau_de_change","بغداد","بغداد","","","","","","33.26159","44.353232","","OpenStreetMap"
"IQ001568","النجمة","النجمة","","","","","Baghdad","بغداد","amenity","bureau_de_change","بغداد","بغداد","","","","","","33.26156","44.352964","","OpenStreetMap"
"IQ001569","شركة الجاه","شركة الجاه","","","","","Baghdad","بغداد","amenity","bureau_de_change","بغداد","بغداد","","","","","","33.260909","44.353633","","OpenStreetMap"
"IQ001574","تجهيزات گرل عرفان","","","","","","Baghdad","بغداد","amenity","restaurant","Baghdad","Baghdad","https://bio.link/erfangrill","","","","","33.258288","44.354645","","OpenStreetMap"
"IQ001625","البدور","البدور","","","","","Baghdad","بغداد","amenity","bureau_de_change","بغداد","بغداد","","","","","","33.272385","44.332884","","OpenStreetMap"
"IQ001626","الرقيم","الرقيم","","","","","Baghdad","بغداد","amenity","bureau_de_change","بغداد","بغداد","","","","","","33.274069","44.334796","","OpenStreetMap"
"IQ001637","فلاح معلة","فلاح معلة","","","","","Baghdad","بغداد","amenity","bureau_de_change","بغداد","بغداد","","","","","","33.273825","44.335214","","OpenStreetMap"
"IQ001638","المنتصر","المنتصر","","","","","Baghdad","بغداد","amenity","bureau_de_change","بغداد","بغداد","","","","","","33.272963","44.335597","","OpenStreetMap"
"IQ001639","نعيم الشام","نعيم الشام","","","","","Baghdad","بغداد","amenity","bureau_de_change","بغداد","بغداد","","","","","","33.272818","44.336491","","OpenStreetMap"
"IQ001645","مختبر النواة ALNAWAT LAB","","","","","","Baghdad","بغداد","amenity","laboratory","Baghdad","Baghdad","","","","","","33.27276","44.335402","","OpenStreetMap"
"IQ001657","حجي علي","حجي علي","","","","","Baghdad","بغداد","amenity","bureau_de_change","بغداد","بغداد","","","","","","33.277038","44.338562","","OpenStreetMap"
"IQ001658","الصديق المقدس","الصديق المقدس","","","","","Baghdad","بغداد","amenity","bureau_de_change","بغداد","بغداد","","","","","","33.278273","44.337761","","OpenStreetMap"
"IQ001659","قصر الوردي","قصر الوردي","","","","","Baghdad","بغداد","amenity","bureau_de_change","بغداد","بغداد","","","","","","33.281461","44.340723","","OpenStreetMap"
"IQ001660","حيدر البيضاني","حيدر البيضاني","","","","","Baghdad","بغداد","amenity","bureau_de_change","بغداد","بغداد","","","","","","33.281257","44.340959","","OpenStreetMap"
"IQ001661","القسور","القسور","","","","","Baghdad","بغداد","amenity","bureau_de_change","بغداد","بغداد","","","","","","33.276411","44.337669","","OpenStreetMap"
"IQ001662","الكناري","الكناري","","","","","Baghdad","بغداد","amenity","bureau_de_change","بغداد","بغداد","","","","","","33.2778","44.339495","","OpenStreetMap"
"IQ001673","مصرف الاستثمار العراقي","","Investment Bank of Iraq","","","","Baghdad","بغداد","amenity","bank","Baghdad","Baghdad","https://en.ibi-bankiraq.iq/","albaya.branch@ibi-bankiraq.com","","","","33.275312","44.345841","","OpenStreetMap"
"IQ001677","صادق ستار","صادق ستار","","","","","Baghdad","بغداد","amenity","bureau_de_change","بغداد","بغداد","","","","","","33.274108","44.345191","","OpenStreetMap"
"IQ001678","الجوارح","الجوارح","","","","","Baghdad","بغداد","amenity","bureau_de_change","بغداد","بغداد","","","","","","33.273667","44.34178","","OpenStreetMap"
"IQ001679","ممدوح الاندلس","ممدوح الاندلس","","","","","Baghdad","بغداد","amenity","bureau_de_change","بغداد","بغداد","","","","","","33.273984","44.345927","","OpenStreetMap"
"IQ001680","ضوء الشمس","ضوء الشمس","","","","","Baghdad","بغداد","amenity","bureau_de_change","بغداد","بغداد","","","","","","33.275124","44.346594","","OpenStreetMap"
"IQ001709","مأكولات اوس","","","","","","Baghdad","بغداد","amenity","restaurant","شارع التأميم, Baghdad","Baghdad","","","","","","33.276298","44.347403","","OpenStreetMap"
"IQ001732","نبع الريحان","نبع الريحان","","","","","Baghdad","بغداد","amenity","bureau_de_change","بغداد","بغداد","","","","","","33.286083","44.304634","","OpenStreetMap"
"IQ001759","مطعم فيس فود","مطعم فيس فود","Facefood Rest.","","","","Baghdad","بغداد","amenity","restaurant","شارع الزويني, Baghdad","Baghdad","http://www.facebook.com/facefoodiraq","","","","","33.301797","44.318775","","OpenStreetMap"
"IQ001764","صوبي اوتو","","","","","","Baghdad","بغداد","amenity","cafe","بغداد","بغداد","https://www.noor-book.com","","soby.iraq","","","33.297444","44.317361","","OpenStreetMap"
"IQ001767","حبةهان","حبةهان","Habahan","","","","Baghdad","بغداد","amenity","restaurant","Baghdad","Baghdad","","","","","","33.300676","44.319032","","OpenStreetMap"
"IQ001772","شركة الفتيان","شركة الفتيان","","","","","Baghdad","بغداد","amenity","bureau_de_change","بغداد","بغداد","","","","","","33.296051","44.323504","","OpenStreetMap"
"IQ001786","نحو الافاق","نحو الافاق","","","","","Baghdad","بغداد","amenity","bureau_de_change","بغداد","بغداد","","","","","","33.308146","44.319468","","OpenStreetMap"
"IQ001787","الثرى2","الثرى2","","","","","Baghdad","بغداد","amenity","bureau_de_change","بغداد","بغداد","","","","","","33.302386","44.320821","","OpenStreetMap"
"IQ001788","شموخ العرب","شموخ العرب","","","","","Baghdad","بغداد","amenity","bureau_de_change","بغداد","بغداد","","","","","","33.307084","44.321944","","OpenStreetMap"
"IQ001793","مكتب بربد حي الجامعة","مكتب بربد حي الجامعة","","","","","Baghdad","بغداد","amenity","post_office","الربيع, Baghdad","Baghdad","","","","","","33.3076","44.3235","","OpenStreetMap"
"IQ001795","مطعم فريندز للاكلات السريعة","","","","","","Baghdad","بغداد","amenity","fast_food","شارع التكية, Baghdad","Baghdad","","","","","","33.306782","44.322032","","OpenStreetMap"
"IQ001804","فارس المينا","فارس المينا","","","","","Baghdad","بغداد","amenity","bureau_de_change","بغداد","بغداد","","","","","","33.308007","44.323611","","OpenStreetMap"
"IQ001805","الاردن","الاردن","","","","","Baghdad","بغداد","amenity","bureau_de_change","بغداد","بغداد","","","","","","33.308423","44.323649","","OpenStreetMap"
"IQ001806","سما النهار","سما النهار","","","","","Baghdad","بغداد","amenity","bureau_de_change","بغداد","بغداد","","","","","","33.306912","44.322593","","OpenStreetMap"
"IQ001807","احمد الثامر","احمد الثامر","","","","","Baghdad","بغداد","amenity","bureau_de_change","بغداد","بغداد","","","","","","33.305105","44.323427","","OpenStreetMap"
"IQ001815","عيادة اللوفر لطب الاسنان","","","","","","Baghdad","بغداد","amenity","clinic","شارع الربيع, بغداد - حي الجامعة - نفق الشرطة - شارع الربيع - عمارة لقمة","بغداد - حي الجامعة - نفق الشرطة - شارع الربيع - عمارة لقمة","","","https://www.facebook.com/share/1Soky24EAU/","https://www.instagram.com/louver.clinic?igsh=czNiejY2M2xmeGdy","","33.308289","44.324241","","OpenStreetMap"
"IQ001816","الأحسان","الأحسان","","","","","Baghdad","بغداد","amenity","bureau_de_change","بغداد","بغداد","","","","","","33.285308","44.329651","","OpenStreetMap"
"IQ001820","برتو","برتو","","","","","Baghdad","بغداد","amenity","bureau_de_change","بغداد","بغداد","","","","","","33.294038","44.33215","","OpenStreetMap"
"IQ001821","داخلية اليرموك","داخلية اليرموك","","","","","Baghdad","بغداد","amenity","bureau_de_change","بغداد","بغداد","","","","","","33.293988","44.33204","","OpenStreetMap"
"IQ001840","المهيوب","المهيوب","","","","","Baghdad","بغداد","amenity","bureau_de_change","بغداد","بغداد","","","","","","33.287419","44.347508","","OpenStreetMap"
"IQ001841","صراف القادسية","صراف القادسية","","","","","Baghdad","بغداد","amenity","bureau_de_change","بغداد","بغداد","","","","","","33.28755","44.347629","","OpenStreetMap"
"IQ001848","مطعم تاز","مطعم تاز","","","","","Baghdad","بغداد","amenity","restaurant","Baghdad","Baghdad","","","","","","33.2942","44.342","","OpenStreetMap"
"IQ001849","مكتب أمارجي العلمي","مكتب أمارجي العلمي","AmarJi Scientific Bureau","","","","Baghdad","بغداد","amenity","pharmacy","الأربع شوارع, Baghdad","Baghdad","http://www.amarji.co","info@amarji.co","","","","33.294658","44.345537","","OpenStreetMap"
"IQ001855","اليرموك الجديد","اليرموك الجديد","","","","","Baghdad","بغداد","amenity","bureau_de_change","بغداد","بغداد","","","","","","33.293344","44.347929","","OpenStreetMap"
"IQ001864","Avoca Iq","","","","","","Baghdad","بغداد","amenity","restaurant","4 Streets, بغداد","بغداد","https://www.instagram.com/avoca.iq/","","","","","33.294441","44.346877","","OpenStreetMap"
"IQ001871","مركز دجلة النسائي المتكامل","","","","","","Baghdad","بغداد","amenity","restaurant","Baghdad","Baghdad","https://tigris.vip/","","","","","33.292887","44.341778","","OpenStreetMap"
"IQ001876","مني اروما 2","مني اروما 2","Mini Aroma 2","","","","Baghdad","بغداد","amenity","fast_food","Baghdad","Baghdad","","","","","","33.291405","44.3538","","OpenStreetMap"
"IQ001878","مطعم لنكاوي","","Langkawi Restaurant","","","","Baghdad","بغداد","amenity","fast_food","حي القادسية, Baghdad","Baghdad","","","","","","33.291386","44.353724","","OpenStreetMap"
"IQ001900","زهرة القادسية","زهرة القادسية","","","","","Baghdad","بغداد","amenity","bureau_de_change","بغداد","بغداد","","","","","","33.291449","44.35214","","OpenStreetMap"
"IQ001902","روضة احباب الشدن","","","","","","Baghdad","بغداد","amenity","kindergarten","602-12, Baghdad","Baghdad","","","","","","33.29243","44.351131","","OpenStreetMap"
"IQ001934","مركز بريد اليرموك","مركز بريد اليرموك","","","","","Baghdad","بغداد","amenity","post_office","Baghdad","Baghdad","","","","","","33.299628","44.332842","","OpenStreetMap"
"IQ001939","صيدلية جبل الزيتون","صيدلية جبل الزيتون","","","","","Baghdad","بغداد","amenity","pharmacy","شارع جامع الشواف, Baghdad","Baghdad","","","","","","33.296102","44.334106","","OpenStreetMap"
"IQ001943","مطعم ستوب اند ايت","مطعم ستوب اند ايت","STOP & EAT","","","","Baghdad","بغداد","amenity","restaurant","Baghdad","Baghdad","https://www.facebook.com/Stop-eat-2192416477443231/","","","","","33.29618","44.329086","","OpenStreetMap"
"IQ001951","محمد عامر","محمد عامر","","","","","Baghdad","بغداد","amenity","bureau_de_change","بغداد","بغداد","","","","","","33.300987","44.333279","","OpenStreetMap"
"IQ001963","Smash burger","","Smash burger","","","","Baghdad","بغداد","amenity","fast_food","Baghdad","Baghdad","https://www.fb.com/iq.smash","","","","","33.298046","44.341266","","OpenStreetMap"
"IQ001969","نهر الخالد","نهر الخالد","","","","","Baghdad","بغداد","amenity","bureau_de_change","بغداد","بغداد","","","","","","33.296822","44.335976","","OpenStreetMap"
"IQ001992","Matleek Restuarant","","","","","","Baghdad","بغداد","amenity","restaurant","612-15, اليرموك","اليرموك","https://www.instagram.com/matleek.iq?igsh=MWZ6b282ajNlMTNmZQ==","","","","","33.301029","44.337161","","OpenStreetMap"
"IQ002012","جوسي برگر","جوسي برگر","Juicy Burger","","","","Baghdad","بغداد","amenity","fast_food","الأربع شوارع, Baghdad","Baghdad","","","","","","33.304133","44.334749","","OpenStreetMap"
"IQ002024","مدرسة أمراء بغداد الأهلية","","Baghdad Princess Private School","","","","Baghdad","بغداد","amenity","school","616-11, Baghdad","Baghdad","http://facebook.com/baghdadprincesschol20","Baghdadprincesschool@gmail.com","","","","33.302343","44.329077","","OpenStreetMap"
"IQ002025","مدرسة امراء بغداد الاهلية","","Baghdad Princes Private School","","","","Baghdad","بغداد","amenity","school","616-11, Baghdad","Baghdad","","Baghdadprincesschool@gmail.com","","","","33.302208","44.329143","","OpenStreetMap"
"IQ002026","اصلان","اصلان","","","","","Baghdad","بغداد","amenity","bureau_de_change","بغداد","بغداد","","","","","","33.305448","44.33315","","OpenStreetMap"
"IQ002027","اللؤلؤ والمرجان","اللؤلؤ والمرجان","","","","","Baghdad","بغداد","amenity","bureau_de_change","بغداد","بغداد","","","","","","33.306015","44.330271","","OpenStreetMap"
"IQ002028","الساحل الغربي","الساحل الغربي","","","","","Baghdad","بغداد","amenity","bureau_de_change","بغداد","بغداد","","","","","","33.306286","44.330175","","OpenStreetMap"
"IQ002030","معهد المجد","معهد المجد","Al-Majd institute","","","","Baghdad","بغداد","amenity","prep_school","شارع الفلوجة, Baghdad","Baghdad","","","","","","33.306243","44.33467","","OpenStreetMap"
"IQ002050","كوفي كورنر","كوفي كورنر","corner cafe","","","","Baghdad","بغداد","amenity","cafe","شارع 14 رمضان, Baghdad","Baghdad","","corner_cafe@yahoo.com","","","","33.307658","44.340537","","OpenStreetMap"
"IQ002060","عيادة الداوودي البيطرية","","","","","","Baghdad","بغداد","amenity","veterinary","تقاطع الاردن, Baghdad","Baghdad","https://instagram.com/aldawoudy_vet_clinic?igshid=ywcokkhx58o8","aliessam84@gmail.com","","","","33.305425","44.335309","","OpenStreetMap"
"IQ002064","البشير الامين","البشير الامين","","","","","Baghdad","بغداد","amenity","bureau_de_change","بغداد","بغداد","","","","","","33.30767","44.340383","","OpenStreetMap"
"IQ002065","منصور الامين","منصور الامين","","","","","Baghdad","بغداد","amenity","bureau_de_change","بغداد","بغداد","","","","","","33.307823","44.340242","","OpenStreetMap"
"IQ002066","الامتنان المامون","الامتنان المامون","","","","","Baghdad","بغداد","amenity","bureau_de_change","بغداد","بغداد","","","","","","33.304908","44.339186","","OpenStreetMap"
"IQ002099","مطعم رركن","مطعم رركن","Rukn Restaurant","","","","Baghdad","بغداد","amenity","restaurant","شارع الفلوجة, بغداد","بغداد","https://www.instagram.com/rukn.rest.iq/","","","","","33.306164","44.337249","","OpenStreetMap"
"IQ002109","اوبر تكسي فرع اليرموك","","","","","","Baghdad","بغداد","amenity","car_rental","Baghdad","Baghdad","","","","","","33.296284","44.344412","","OpenStreetMap"
"IQ002110","مكتب الوشق العلمي","","","","","","Baghdad","بغداد","amenity","pharmacy","الأربع شوارع, Baghdad","Baghdad","","m.z.alkayyat@gmail.com","","","","33.296192","44.346348","","OpenStreetMap"
"IQ002152","صيدلية امل عطرة","صيدلية امل عطرة","Pharmacy hope fragrant","","","","Baghdad","بغداد","amenity","pharmacy","شارع الاردن, Baghdad","Baghdad","","","","","","33.304402","44.342998","","OpenStreetMap"
"IQ002153","صيدلية الرزان","صيدلية الرزان","","","","","Baghdad","بغداد","amenity","pharmacy","شارع 14 رمضان, Baghdad","Baghdad","","","share/1BWyZA2Tpp","","","33.304771","44.341795","","OpenStreetMap"
"IQ002157","LooP Cafe - لوب كافيه","","","","","","Baghdad","بغداد","amenity","cafe","شارع الاميرات, Baghdad","Baghdad","https://loopcafe.iq","","","","","33.304859","44.346361","","OpenStreetMap"
"IQ002159","الرحيق","الرحيق","","","","","Baghdad","بغداد","amenity","bureau_de_change","بغداد","بغداد","","","","","","33.304092","44.343021","","OpenStreetMap"
"IQ002173","روضة السندباد الاهلية","روضة السندباد الاهلية","","","","","Baghdad","بغداد","amenity","kindergarten","شارع الأميرات, Baghdad","Baghdad","","","","","","33.306901","44.352504","","OpenStreetMap"
"IQ002177","مطعم بابا فلافل","مطعم بابا فلافل","","","","","Baghdad","بغداد","amenity","fast_food","شارع الاردن, Baghdad","Baghdad","https://babafalafel.com","info@babafalafel.com","","","","33.303262","44.352149","","OpenStreetMap"
"IQ002180","Cloud Lounge","","","","","","Baghdad","بغداد","amenity","restaurant","11, Baghdad","Baghdad","https://www.a3mal.com","","","","","33.305003","44.350405","","OpenStreetMap"
"IQ002181","شوێن","","Locus","","","","Baghdad","بغداد","amenity","cafe","شارع بيروت, Baghdad","Baghdad","","","","","","33.304602","44.348731","","OpenStreetMap"
"IQ002182","Locus","","Locus","","","","Baghdad","بغداد","amenity","cafe","شارع بيروت, Baghdad","Baghdad","","","","","","33.304599","44.348746","","OpenStreetMap"
"IQ002196","الشفيع","الشفيع","","","","","Baghdad","بغداد","amenity","bureau_de_change","بغداد","بغداد","","","","","","33.33479","44.272635","","OpenStreetMap"
"IQ002218","مكتبة اللؤلؤة","مكتبة اللؤلؤة","The pearl library","","","","Baghdad","بغداد","amenity","library","Baghdad","Baghdad","","new.prl93@gmail.com","","","","33.321477","44.29708","","OpenStreetMap"
"IQ002219","صيدلية عبير بغداد","صيدلية عبير بغداد","Abeer Baghdad Pharmacy","ده رمنخانه عه بير به غداد","","","Baghdad","بغداد","amenity","pharmacy","شارع المركز, Baghdad","Baghdad","","AbeerBaghdadpharmacy@gmail.com","","","","33.319568","44.296678","","OpenStreetMap"
"IQ002228","الصمد","الصمد","","","","","Baghdad","بغداد","amenity","bureau_de_change","بغداد","بغداد","","","","","","33.317109","44.297642","","OpenStreetMap"
"IQ002241","الأنيس","الأنيس","","","","","Baghdad","بغداد","amenity","bureau_de_change","بغداد","بغداد","","","","","","33.331062","44.27916","","OpenStreetMap"
"IQ002246","صيدلية الساعة","صيدلية الساعة","","","","","Baghdad","بغداد","amenity","pharmacy","الكفاءات, Baghdad","Baghdad","","","","","","33.3305","44.287","","OpenStreetMap"
"IQ002255","Dr.Essam Ahmed","Dr.Essam Ahmed","Dr.Essam Ahmed","Dr.Essam Ahmed","","","Baghdad","بغداد","amenity","doctors","Baghdad","Baghdad","","","","","","33.322459","44.296602","","OpenStreetMap"
"IQ002257","سرمد الملك","سرمد الملك","","","","","Baghdad","بغداد","amenity","bureau_de_change","بغداد","بغداد","","","","","","33.322785","44.296127","","OpenStreetMap"
"IQ002258","حي الخضراء","حي الخضراء","","","","","Baghdad","بغداد","amenity","bureau_de_change","بغداد","بغداد","","","","","","33.321954","44.2969","","OpenStreetMap"
"IQ002259","الراشد","الراشد","","","","","Baghdad","بغداد","amenity","bureau_de_change","بغداد","بغداد","","","","","","33.323545","44.296444","","OpenStreetMap"
"IQ002260","انهار الخيرات","انهار الخيرات","","","","","Baghdad","بغداد","amenity","bureau_de_change","بغداد","بغداد","","","","","","33.330689","44.289663","","OpenStreetMap"
"IQ002273","المنير","المنير","","","","","Baghdad","بغداد","amenity","bureau_de_change","بغداد","بغداد","","","","","","33.338952","44.27549","","OpenStreetMap"
"IQ002274","الصقر العربي","الصقر العربي","","","","","Baghdad","بغداد","amenity","bureau_de_change","بغداد","بغداد","","","","","","33.339287","44.275915","","OpenStreetMap"
"IQ002291","منفذ احباب المصطفى","","","","","","Baghdad","بغداد","amenity","bureau_de_change","بغداد","بغداد","","","","","","33.344889","44.273528","","OpenStreetMap"
"IQ002292","احباب المصطفى","احباب المصطفى","","","","","Baghdad","بغداد","amenity","bureau_de_change","بغداد","بغداد","","","","","","33.344784","44.272748","","OpenStreetMap"
"IQ002293","الباسط","الباسط","","","","","Baghdad","بغداد","amenity","bureau_de_change","بغداد","بغداد","","","","","","33.344286","44.271913","","OpenStreetMap"
"IQ002294","الغزال العربي","الغزال العربي","","","","","Baghdad","بغداد","amenity","bureau_de_change","بغداد","بغداد","","","","","","33.344543","44.272927","","OpenStreetMap"
"IQ002295","المستفيد","المستفيد","","","","","Baghdad","بغداد","amenity","bureau_de_change","بغداد","بغداد","","","","","","33.344843","44.273889","","OpenStreetMap"
"IQ002316","امير الغزالية","امير الغزالية","","","","","Baghdad","بغداد","amenity","bureau_de_change","بغداد","بغداد","","","","","","33.34879","44.269267","","OpenStreetMap"
"IQ002323","مطعم جريمة أكل","","","","","","Baghdad","بغداد","amenity","restaurant","شارع المشجر, Baghdad","Baghdad","","","","","","33.349183","44.273638","","OpenStreetMap"
"IQ002325","مستر طماطة","","Mr.TomaTo","","","","Baghdad","بغداد","amenity","fast_food","شارع المشجر, Baghdad","Baghdad","","","","","","33.352011","44.273478","","OpenStreetMap"
"IQ002326","ماركتي","ماركتي","","","","","Baghdad","بغداد","amenity","bureau_de_change","بغداد","بغداد","","","","","","33.351861","44.273598","","OpenStreetMap"
"IQ002327","جوهرة بغداد2","جوهرة بغداد2","","","","","Baghdad","بغداد","amenity","bureau_de_change","بغداد","بغداد","","","","","","33.349457","44.274412","","OpenStreetMap"
"IQ002334","مطعم السنابل","مطعم السنابل","","","","","Baghdad","بغداد","amenity","restaurant","شارع الضغط, Baghdad","Baghdad","","","","","","33.358414","44.266787","","OpenStreetMap"
"IQ002343","اياد الزيدي","اياد الزيدي","","","","","Baghdad","بغداد","amenity","bureau_de_change","بغداد","بغداد","","","","","","33.355449","44.269523","","OpenStreetMap"
"IQ002353","المسلة","المسلة","","","","","Baghdad","بغداد","amenity","bureau_de_change","بغداد","بغداد","","","","","","33.357638","44.273946","","OpenStreetMap"
"IQ002354","الليث سنتر","الليث سنتر","","","","","Baghdad","بغداد","amenity","bureau_de_change","بغداد","بغداد","","","","","","33.361049","44.270552","","OpenStreetMap"
"IQ002355","احمد العيساوي","احمد العيساوي","","","","","Baghdad","بغداد","amenity","bureau_de_change","بغداد","بغداد","","","","","","33.355731","44.27281","","OpenStreetMap"
"IQ002364","ستار ابو علي","ستار ابو علي","","","","","Baghdad","بغداد","amenity","bureau_de_change","بغداد","بغداد","","","","","","33.338161","44.276541","","OpenStreetMap"
"IQ002365","سيف الغزالية","سيف الغزالية","","","","","Baghdad","بغداد","amenity","bureau_de_change","بغداد","بغداد","","","","","","33.340667","44.282266","","OpenStreetMap"
"IQ002389","روضة البيت السعيد","","HAPPYHOME","","","","Baghdad","بغداد","amenity","kindergarten","Baghdad","Baghdad","","","","","","33.344399","44.291825","","OpenStreetMap"
"IQ002403","مركز أبل لخدمات الانترنت","مركز أبل لخدمات الانترنت","Apple Center For Internet Service","","","","Baghdad","بغداد","amenity","internet_cafe","Baghdad","Baghdad","","","","","","33.354395","44.29406","","OpenStreetMap"
"IQ002404","أبل للكابل الضوئي","أبل للكابل الضوئي","apple FTTH","","","","Baghdad","بغداد","amenity","internet_cafe","Baghdad","Baghdad","https://www.facebook.com/Apple-Center-For-Internet-Service-%D9%85%D8%B1%D9%83%D8%B2-%D8%A3%D8%A8%D9%84-%D9%84%D8%AE%D8%AF%D9%85%D8%A7%D8%AA-%D8%A7%D9%84%D8%A7%D9%86%D8%AA%D8%B1%D9%86%D8%AA-251943881806282/","","","","","33.354311","44.293194","","OpenStreetMap"
"IQ002413","مركز أبل لخدمات الانترنت والكابل الضوئي","مركز أبل لخدمات الانترنت والكابل الضوئي","Apple center for Internet FTTH service","","","","Baghdad","بغداد","amenity","internet_cafe","Baghdad","Baghdad","","","","","","33.355105","44.293681","","OpenStreetMap"
"IQ002448","كنك همبرغر;فلافل اللؤلؤة","","VKINK BURGER;Viking Burger","","","","Baghdad","بغداد","amenity","restaurant","حي الجامعة, Baghdad","Baghdad","","","","","","33.319166","44.314312","","OpenStreetMap"
"IQ002462","الرضوة","الرضوة","","","","","Baghdad","بغداد","amenity","bureau_de_change","بغداد","بغداد","","","","","","33.310275","44.315892","","OpenStreetMap"
"IQ002463","توفيق الشمري","توفيق الشمري","","","","","Baghdad","بغداد","amenity","bureau_de_change","بغداد","بغداد","","","","","","33.314714","44.315676","","OpenStreetMap"
"IQ002474","مطعم المطبخ الخليجي","مطعم المطبخ الخليجي","Gulf Kitchen Restaurant","","","","Baghdad","بغداد","amenity","restaurant","Baghdad","Baghdad","","","","","","33.309248","44.323536","","OpenStreetMap"
"IQ002479","قهوتي","","","","","","Baghdad","بغداد","amenity","cafe","نفق الشرطة, Baghdad","Baghdad","https://www.facebook.com/pg/qahwtee/reviews/","","","","","33.309972","44.323587","","OpenStreetMap"
"IQ002487","منفذ الاردن","","","","","","Baghdad","بغداد","amenity","bureau_de_change","بغداد","بغداد","","","","","","33.308889","44.324111","","OpenStreetMap"
"IQ002488","تونس","تونس","","","","","Baghdad","بغداد","amenity","bureau_de_change","بغداد","بغداد","","","","","","33.308732","44.324159","","OpenStreetMap"
"IQ002489","اوبال","اوبال","","","","","Baghdad","بغداد","amenity","bureau_de_change","بغداد","بغداد","","","","","","33.312435","44.324308","","OpenStreetMap"
"IQ002490","خالد الصراف","خالد الصراف","","","","","Baghdad","بغداد","amenity","bureau_de_change","بغداد","بغداد","","","","","","33.311121","44.323762","","OpenStreetMap"
"IQ002491","الوصيف","الوصيف","","","","","Baghdad","بغداد","amenity","bureau_de_change","بغداد","بغداد","","","","","","33.313074","44.324308","","OpenStreetMap"
"IQ002492","حديد","حديد","","","","","Baghdad","بغداد","amenity","bureau_de_change","بغداد","بغداد","","","","","","33.312022","44.323508","","OpenStreetMap"
"IQ002493","الرضاب","الرضاب","","","","","Baghdad","بغداد","amenity","bureau_de_change","بغداد","بغداد","","","","","","33.312396","44.323756","","OpenStreetMap"
"IQ002494","شركة الاسارير","شركة الاسارير","","","","","Baghdad","بغداد","amenity","bureau_de_change","بغداد","بغداد","","","","","","33.310202","44.323716","","OpenStreetMap"
"IQ002495","الاوان الربيع","الاوان الربيع","","","","","Baghdad","بغداد","amenity","bureau_de_change","بغداد","بغداد","","","","","","33.311366","44.324295","","OpenStreetMap"
"IQ002511","عيادة لانوس لطب الاسنان","","","","","","Baghdad","بغداد","amenity","hospital","شارع الربيع, Baghdad","Baghdad","","","","","","33.312479","44.324596","","OpenStreetMap"
"IQ002512","برج انترنيت ايرثلنك","برج انترنيت ايرثلنك","AIRMAX EARTHLINKTELE BRIDGE","","","","Baghdad","بغداد","amenity","community_centre","حي الجامعة شارع 66, Baghdad","Baghdad","https://earthlinktele.com/","mohdarkness@gmail.com","","","","33.316704","44.32137","","OpenStreetMap"
"IQ002519","عياده الدكتور وسام عبد الصمد يوسف /طب وجراحة العيون","","Doctor wissam clinic ophthalmology","عيادة عيون","","","Baghdad","بغداد","amenity","clinic","شارع ٦٦, Baghdad","Baghdad","https://www.facebook.com/wissamclinic/","","","","","33.316522","44.321252","","OpenStreetMap"
"IQ002524","ربيع المدينة","ربيع المدينة","","","","","Baghdad","بغداد","amenity","bureau_de_change","بغداد","بغداد","","","","","","33.318824","44.316571","","OpenStreetMap"
"IQ002525","مجمع تاج الماس الطبي","","","","","","Baghdad","بغداد","amenity","clinic","بغداد / حي الجامعة / وسط شارع 66, Baghdad","Baghdad","","","","","","33.318582","44.3159","","OpenStreetMap"
"IQ002526","مختبر تاج الماس للتحليلات المرضية والهرمونات","","","","","","Baghdad","بغداد","amenity","clinic","بغداد / حي الجامعة / وسط شارع 66, Baghdad","Baghdad","","","","","","33.318567","44.315942","","OpenStreetMap"
"IQ002527","صيدلية اسرار الصحة","","","","","","Baghdad","بغداد","amenity","pharmacy","بغداد / حي الجامعة / وسط شارع 66, Baghdad","Baghdad","","","","","","33.318541","44.316009","","OpenStreetMap"
"IQ002553","فرايد تشكن","","","","","","Baghdad","بغداد","amenity","restaurant","شارع الربيع, Baghdad","Baghdad","","","","","","33.321788","44.32459","","OpenStreetMap"
"IQ002559","صراف الحارة","صراف الحارة","","","","","Baghdad","بغداد","amenity","bureau_de_change","بغداد","بغداد","","","","","","33.317154","44.324462","","OpenStreetMap"
"IQ002560","عطاء العربية","عطاء العربية","","","","","Baghdad","بغداد","amenity","bureau_de_change","بغداد","بغداد","","","","","","33.316309","44.324452","","OpenStreetMap"
"IQ002561","الرامي","الرامي","","","","","Baghdad","بغداد","amenity","bureau_de_change","بغداد","بغداد","","","","","","33.316395","44.324409","","OpenStreetMap"
"IQ002562","الفكر","الفكر","","","","","Baghdad","بغداد","amenity","bureau_de_change","بغداد","بغداد","","","","","","33.319775","44.324603","","OpenStreetMap"
"IQ002563","شامخ المحمدي","شامخ المحمدي","","","","","Baghdad","بغداد","amenity","bureau_de_change","بغداد","بغداد","","","","","","33.316704","44.323473","","OpenStreetMap"
"IQ002564","بركات النعيم","بركات النعيم","","","","","Baghdad","بغداد","amenity","bureau_de_change","بغداد","بغداد","","","","","","33.315732","44.324421","","OpenStreetMap"
"IQ002565","زهور الربيع","زهور الربيع","","","","","Baghdad","بغداد","amenity","bureau_de_change","بغداد","بغداد","","","","","","33.315351","44.323652","","OpenStreetMap"
"IQ002566","فجر الغزالية","فجر الغزالية","","","","","Baghdad","بغداد","amenity","bureau_de_change","بغداد","بغداد","","","","","","33.319124","44.324078","","OpenStreetMap"
"IQ002567","المارد","المارد","","","","","Baghdad","بغداد","amenity","bureau_de_change","بغداد","بغداد","","","","","","33.319988","44.324799","","OpenStreetMap"
"IQ002568","الكوخ","الكوخ","","","","","Baghdad","بغداد","amenity","bureau_de_change","بغداد","بغداد","","","","","","33.316514","44.324428","","OpenStreetMap"
"IQ002597","مركز صحي اسنان الداوودي","","STATE CO FOR DRUGS A MED APL AL ADDILE","","","","Baghdad","بغداد","amenity","clinic","Baghdad","Baghdad","","","","","","33.323667","44.304222","","OpenStreetMap"
"IQ002620","فاست فود","","fast food","","","","Baghdad","بغداد","amenity","cafe","Baghdad","Baghdad","","","","","","33.333625","44.314871","","OpenStreetMap"
"IQ002621","شاورما الشام","","","","","","Baghdad","بغداد","amenity","restaurant","Baghdad","Baghdad","","","","","","33.333131","44.314382","","OpenStreetMap"
"IQ002624","فاست لنك لخدمات الانترنت","","FASTLINK INTERNET SERVICE PROVIDER","","","","Baghdad","بغداد","amenity","internet_cafe","شارع حي العدل, Baghdad","Baghdad","","","","","","33.331921","44.312145","","OpenStreetMap"
"IQ002629","انفيرنو كافيه","","","","","","Baghdad","بغداد","amenity","cafe","شارع حي العدل, بغداد","بغداد","https://www.instagram.com/infernocafe.iq?igsh=MTIIYTM4emsxOWZscA==","","","","","33.332947","44.314536","","OpenStreetMap"
"IQ002647","مطعم بيت الهمبركر","مطعم بيت الهمبركر","home of hamburgers restaurant","","","","Baghdad","بغداد","amenity","restaurant","شارع الربيع, Baghdad","Baghdad","","","","","","33.328154","44.324848","","OpenStreetMap"
"IQ002649","صيدلية التين و الزيتون","صيدلية التين و الزيتون","","","","","Baghdad","بغداد","amenity","pharmacy","شارع الربيع, Baghdad","Baghdad","","","","","","33.3263","44.324762","","OpenStreetMap"
"IQ002656","القوامي","القوامي","","","","","Baghdad","بغداد","amenity","bureau_de_change","بغداد","بغداد","","","","","","33.323428","44.324706","","OpenStreetMap"
"IQ002657","شركة الضالع","شركة الضالع","","","","","Baghdad","بغداد","amenity","bureau_de_change","بغداد","بغداد","","","","","","33.322575","44.324678","","OpenStreetMap"
"IQ002658","مصطفى الامين","مصطفى الامين","","","","","Baghdad","بغداد","amenity","bureau_de_change","بغداد","بغداد","","","","","","33.322696","44.324255","","OpenStreetMap"
"IQ002659","السائح العربي","السائح العربي","","","","","Baghdad","بغداد","amenity","bureau_de_change","بغداد","بغداد","","","","","","33.323752","44.324715","","OpenStreetMap"
"IQ002682","منفذ ماستر","","","","","","Baghdad","بغداد","amenity","bureau_de_change","بغداد","بغداد","","","","","","33.333333","44.316806","","OpenStreetMap"
"IQ002695","كوخ العملات للصيرفة وكي كارد","كوخ العملات للصيرفة وكي كارد","","","","","Baghdad","بغداد","amenity","bureau_de_change","شارع الربيع, Baghdad","Baghdad","","","","","","33.331","44.3245","","OpenStreetMap"
"IQ002698","سيطرة شارع القادة","سيطرة شارع القادة","","","","","Baghdad","بغداد","amenity","police","شارع القادة, Baghdad","Baghdad","","","","","","33.331928","44.324357","","OpenStreetMap"
"IQ002699","سمير الصراف","سمير الصراف","","","","","Baghdad","بغداد","amenity","bureau_de_change","بغداد","بغداد","","","","","","33.333157","44.324916","","OpenStreetMap"
"IQ002700","كوخ العملات","كوخ العملات","","","","","Baghdad","بغداد","amenity","bureau_de_change","بغداد","بغداد","","","","","","33.331549","44.325674","","OpenStreetMap"
"IQ002717","مطعم بيت الكل","","","","","","Baghdad","بغداد","amenity","restaurant","الداوودي شارع التانكي, المنصور","المنصور","https://www.facebook.com/beitelkul2020/?modal=admin_todo_tour","","","","","33.312915","44.333955","","OpenStreetMap"
"IQ002725","مصرف التنمية الدولي/ المنصور","مصرف التنمية الدولي/ المنصور","International Development Bank","","","","Baghdad","بغداد","amenity","bank","Baghdad","Baghdad","","","","","","33.309146","44.340131","","OpenStreetMap"
"IQ002728","مطعم وقاعات أفينيو","مطعم وقاعات أفينيو","Avenue","","","","Baghdad","بغداد","amenity","restaurant","شارع 14 رمضان, Baghdad","Baghdad","","","","","","33.311895","44.33911","","OpenStreetMap"
"IQ002730","صيدلية شمس الداودي","صيدلية شمس الداودي","Shams Aldaoudi Pharmacy","","","","Baghdad","بغداد","amenity","pharmacy","شارع الحارثية, Baghdad","Baghdad","","","","","","33.30874","44.335696","","OpenStreetMap"
"IQ002731","صيدلية جوهرة الداودي","صيدلية جوهرة الداودي","Jawharat Aldawoodi Ph.","","","","Baghdad","بغداد","amenity","pharmacy","Baghdad","Baghdad","","","","","","33.312397","44.336247","","OpenStreetMap"
"IQ002736","مطعم شكسبير","","","","","","Baghdad","بغداد","amenity","restaurant","شارع 14 رمضان, Baghdad","Baghdad","","","","","","33.314079","44.337757","","OpenStreetMap"
"IQ002818","مطر سناك - muttar snack","","","","","","Baghdad","بغداد","amenity","restaurant","611-81, حي المنصور","حي المنصور","","","","","","33.309697","44.336219","","OpenStreetMap"
"IQ002839","مكتب بريد ARAMEX","مكتب بريد ARAMEX","Aramex","","","","Baghdad","بغداد","amenity","post_office","شارع 14 رمضان, Baghdad","Baghdad","","","","","","33.317202","44.338302","","OpenStreetMap"
"IQ002840","Adhwa Al-Ascema Pharmacy","Adhwa Al-Ascema Pharmacy","Adhwa Al-Ascema Pharmacy","","","","Baghdad","بغداد","amenity","pharmacy","شارع 14 رمضان, Baghdad","Baghdad","","","","","","33.316784","44.337712","","OpenStreetMap"
"IQ002841","Big B مطعم","Big B مطعم","Big B","","","","Baghdad","بغداد","amenity","restaurant","شارع 14 رمضان, Baghdad","Baghdad","","","","","","33.320977","44.338007","","OpenStreetMap"
"IQ002846","مختبر الدكتور لؤي إبراهيم التخصصي للتحليلات المرضية","مختبر الدكتور لؤي إبراهيم التخصصي للتحليلات المرضية","Dr. Luay Ibraheem Medical Clinical lab","","","","Baghdad","بغداد","amenity","clinic","شارع 14 رمضان, Baghdad","Baghdad","","luay.lab@gmail.com","","","","33.320647","44.338438","","OpenStreetMap"
"IQ002848","أوبر تكسي","","obr taxi","","","","Baghdad","بغداد","amenity","car_rental","شارع 14 رمضان, Baghdad","Baghdad","https://www.obr.taxi/","","","","","33.315352","44.336008","","OpenStreetMap"
"IQ002872","مجمع النور الطبي","","","","","","Baghdad","بغداد","amenity","clinic","شارع 14 رمضان, Baghdad","Baghdad","","","","","","33.320621","44.337296","","OpenStreetMap"
"IQ002875","نبض المنصور","نبض المنصور","","","","","Baghdad","بغداد","amenity","bureau_de_change","بغداد","بغداد","","","","","","33.320622","44.338017","","OpenStreetMap"
"IQ002876","شركة جونيه","شركة جونيه","","","","","Baghdad","بغداد","amenity","bureau_de_change","بغداد","بغداد","","","","","","33.321032","44.338082","","OpenStreetMap"
"IQ002877","نهر الفرات","نهر الفرات","","","","","Baghdad","بغداد","amenity","bureau_de_change","بغداد","بغداد","","","","","","33.321121","44.33807","","OpenStreetMap"
"IQ002878","نبع بغداد","نبع بغداد","","","","","Baghdad","بغداد","amenity","bureau_de_change","بغداد","بغداد","","","","","","33.318348","44.340682","","OpenStreetMap"
"IQ002879","الخط الذهبي","الخط الذهبي","","","","","Baghdad","بغداد","amenity","bureau_de_change","بغداد","بغداد","","","","","","33.318601","44.33846","","OpenStreetMap"
"IQ002880","جوهرة الدينار","جوهرة الدينار","","","","","Baghdad","بغداد","amenity","bureau_de_change","بغداد","بغداد","","","","","","33.318048","44.340866","","OpenStreetMap"
"IQ002881","توتة","توتة","","","","","Baghdad","بغداد","amenity","bureau_de_change","بغداد","بغداد","","","","","","33.319082","44.339195","","OpenStreetMap"
"IQ002882","كاني","كاني","","","","","Baghdad","بغداد","amenity","bureau_de_change","بغداد","بغداد","","","","","","33.321147","44.337978","","OpenStreetMap"
"IQ002883","اوروك الرافدين 2","اوروك الرافدين 2","","","","","Baghdad","بغداد","amenity","bureau_de_change","بغداد","بغداد","","","","","","33.318759","44.337955","","OpenStreetMap"
"IQ002938","سي سي بركر","سي سي بركر","CC Burger","سه ي سه ي به ركه ر","","","Baghdad","بغداد","amenity","restaurant","Baghdad","Baghdad","http://cc-burger.com","","","","","33.314626","44.341874","","OpenStreetMap"
"IQ002942","مطعم اصايل","مطعم اصايل","Asayel Restaurant","","","","Baghdad","بغداد","amenity","restaurant","شارع الفروسية, حي المنصور","حي المنصور","","","","","","33.313374","44.346594","","OpenStreetMap"
"IQ002955","مركز ابتسامة بغداد التخصصي لطب الاسنان","مركز ابتسامة بغداد التخصصي لطب الاسنان","","","","","Baghdad","بغداد","amenity","dentist","شارع المنصور, Baghdad","Baghdad","https://www.baghdadsmile.com/","","","","","33.318169","44.341941","","OpenStreetMap"
"IQ002966","ليڤانت لتجميل و زراعة الاسنان","ليڤانت لتجميل و زراعة الاسنان","Levant","","","","Baghdad","بغداد","amenity","dentist","شارع المنصور, Baghdad","Baghdad","","","","","","33.318163","44.341711","","OpenStreetMap"
"IQ002969","مطعم مدلل","مطعم مدلل","","","","","Baghdad","بغداد","amenity","restaurant","شارع المنصور, Baghdad","Baghdad","","restmdelal@gmail.com","https://www.facebook.com/rest.mdalal/","","","33.317948","44.343616","","OpenStreetMap"
"IQ002970","اسماك المتنبي","اسماك المتنبي","","","","","Baghdad","بغداد","amenity","restaurant","Baghdad","Baghdad","","","","","","33.320046","44.34228","","OpenStreetMap"
"IQ002972","وئام المنصور","وئام المنصور","","","","","Baghdad","بغداد","amenity","bureau_de_change","بغداد","بغداد","","","","","","33.31785","44.341725","","OpenStreetMap"
"IQ002973","مكيال المنصور","مكيال المنصور","","","","","Baghdad","بغداد","amenity","bureau_de_change","بغداد","بغداد","","","","","","33.317816","44.341945","","OpenStreetMap"
"IQ003008","مطعم بيزا هات","مطعم بيزا هات","Pizza Hut","","","","Baghdad","بغداد","amenity","restaurant","شارع احمد عرابي, Baghdad","Baghdad","","","","","","33.321033","44.354186","","OpenStreetMap"
"IQ003013","عيادة السنا الدكتور عماد كاظم عبد الاخوة","عيادة السنا الدكتور عماد كاظم عبد الاخوة","Sana Dent.","Dr.Emad Kadhim Abdul akhwah","","","Baghdad","بغداد","amenity","clinic","Baghdad","Baghdad","","","","","","33.317421","44.352873","","OpenStreetMap"
"IQ003017","عيادة السنا التخصصية لطب الاسنان الدكتور عماد كاظم عبد الاخوة","عيادة السنا التخصصية لطب الاسنان الدكتور عماد كاظم عبد الاخوة","Sana Dent.","","","","Baghdad","بغداد","amenity","clinic","المنصور, Baghdad","Baghdad","","","","","","33.317359","44.353031","","OpenStreetMap"
"IQ003019","عيادة د.عادل الركابي / طب الاطفال","عيادة د.عادل الركابي / طب الاطفال","Dr. Adil Alrekaby","","","","Baghdad","بغداد","amenity","clinic","Al-Mansour Street, Baghdad","Baghdad","","","","","","33.316862","44.354628","","OpenStreetMap"
"IQ003023","د. وسن حمد جاسم","","Dr. Wasan Hamad Jasim","","","","Baghdad","بغداد","amenity","doctors","شارع الأميرات, Baghdad","Baghdad","https://www.facebook.com/dr.wasan.fertility.clinic/","dr.wasan.fertility.cl@gmail.com","","","","33.315694","44.352464","","OpenStreetMap"
"IQ003024","د. عبدالله لؤي كامل","","Dr. Abdullah Luay Kamil","","","","Baghdad","بغداد","amenity","doctors","شارع الأميرات, Baghdad","Baghdad","https://www.facebook.com/dr.wasan.fertility.clinic/","dr.wasan.fertility.cl@gmail.com","","","","33.315562","44.352446","","OpenStreetMap"
"IQ003030","بازيان","بازيان","","","","","Baghdad","بغداد","amenity","bureau_de_change","بغداد","بغداد","","","","","","33.316981","44.35327","","OpenStreetMap"
"IQ003086","مطعم سي سنيور","مطعم سي سنيور","","","","","Baghdad","بغداد","amenity","restaurant","Baghdad","Baghdad","","","","","","33.3249","44.3414","","OpenStreetMap"
"IQ003088","زاد أهلنه","زاد أهلنه","Sad ahalna","","","","Baghdad","بغداد","amenity","restaurant","شارع 14 رمضان, Baghdad","Baghdad","","","","","","33.323275","44.338592","","OpenStreetMap"
"IQ003099","مطعم و كوفي طبق المندي","مطعم و كوفي طبق المندي","","","","","Baghdad","بغداد","amenity","restaurant","Baghdad","Baghdad","https://m.facebook.com/almandibaghdad/","","","","","33.325255","44.335326","","OpenStreetMap"
"IQ003105","مطعم وكافيه خان مندي","","Khan Mandi","","","","Baghdad","بغداد","amenity","restaurant","Baghdad","Baghdad","https://khanmandi.com","","","","","33.32711","44.338117","","OpenStreetMap"
"IQ003121","منفذ ضفاف كي","","","","","","Baghdad","بغداد","amenity","bureau_de_change","بغداد","بغداد","","","","","","33.322639","44.338417","","OpenStreetMap"
"IQ003122","ابو جعفر المنصور","ابو جعفر المنصور","","","","","Baghdad","بغداد","amenity","bureau_de_change","بغداد","بغداد","","","","","","33.323883","44.338088","","OpenStreetMap"
"IQ003123","شفق النور","شفق النور","","","","","Baghdad","بغداد","amenity","bureau_de_change","بغداد","بغداد","","","","","","33.321933","44.337916","","OpenStreetMap"
"IQ003124","المعري","المعري","","","","","Baghdad","بغداد","amenity","bureau_de_change","بغداد","بغداد","","","","","","33.324235","44.338711","","OpenStreetMap"
"IQ003125","شركة البيت","شركة البيت","","","","","Baghdad","بغداد","amenity","bureau_de_change","بغداد","بغداد","","","","","","33.323986","44.338688","","OpenStreetMap"
"IQ003127","سما العز","سما العز","","","","","Baghdad","بغداد","amenity","bureau_de_change","بغداد","بغداد","","","","","","33.322716","44.338618","","OpenStreetMap"
"IQ003128","الجهراء","الجهراء","","","","","Baghdad","بغداد","amenity","bureau_de_change","بغداد","بغداد","","","","","","33.322141","44.338561","","OpenStreetMap"
"IQ003163","جهينة","جهينة","","","","","Baghdad","بغداد","amenity","bureau_de_change","بغداد","بغداد","","","","","","33.333658","44.332279","","OpenStreetMap"
"IQ003166","عيادة لامورا","عيادة لامورا","Lamora clinic","","","","Baghdad","بغداد","amenity","clinic","617-57, Baghdad","Baghdad","https://www.instagram.com/dr.5e?igsh=NDN0Y3VxbGtjNG1z&utm_source=qr","omarnooray@gmail.com","","","","33.333332","44.333466","","OpenStreetMap"
"IQ003180","البهادلي","البهادلي","","","","","Baghdad","بغداد","amenity","bureau_de_change","بغداد","بغداد","","","","","","33.333624","44.338114","","OpenStreetMap"
"IQ003190","صاج البديع فرع المنصور","صاج البديع فرع المنصور","Every Day Cafe","","","","Baghdad","بغداد","amenity","cafe","شارع ابو جعفر المنصور / السبعاوي, Baghdad","Baghdad","","","","","","33.325608","44.343717","","OpenStreetMap"
"IQ003191","مطعم كباب حجي حسين","مطعم كباب حجي حسين","","","","","Baghdad","بغداد","amenity","restaurant","Baghdad","Baghdad","","","","","","33.324628","44.346046","","OpenStreetMap"
"IQ003195","مختبر مايكرو","مختبر مايكرو","Micro Lab","","","","Baghdad","بغداد","amenity","hospital","شارع المنصور, Baghdad","Baghdad","","","","","","33.324665","44.346801","","OpenStreetMap"
"IQ003198","شركة الوضحاء","شركة الوضحاء","","","","","Baghdad","بغداد","amenity","bureau_de_change","بغداد","بغداد","","","","","","33.324766","44.345076","","OpenStreetMap"
"IQ003199","باجة ابو طلال / المنصور","","","","","","Baghdad","بغداد","amenity","restaurant","Baghdad","Baghdad","","","","","","33.32548","44.343722","","OpenStreetMap"
"IQ003212","شركة المروج للصيرفه","شركة المروج للصيرفه","Al-Murooj Exchange company","Al-Murooj Exchange company","","","Baghdad","بغداد","amenity","bureau_de_change","Baghdad","Baghdad","","","","","","33.324489","44.353411","","OpenStreetMap"
"IQ003213","صيدلية جبل الجودي","صيدلية جبل الجودي","","","","","Baghdad","بغداد","amenity","pharmacy","المنصور, Baghdad","Baghdad","","","","","","33.324512","44.351331","","OpenStreetMap"
"IQ003214","مطعم كباب محمد 2","مطعم كباب محمد 2","","","","","Baghdad","بغداد","amenity","restaurant","المنصور, Baghdad","Baghdad","","","","","","33.324601","44.348795","","OpenStreetMap"
"IQ003219","اولاد الاكابر","اولاد الاكابر","","","","","Baghdad","بغداد","amenity","bureau_de_change","بغداد","بغداد","","","","","","33.322142","44.353792","","OpenStreetMap"
"IQ003220","السلطان","السلطان","","","","","Baghdad","بغداد","amenity","bureau_de_change","بغداد","بغداد","","","","","","33.32518","44.35019","","OpenStreetMap"
"IQ003221","الرشدي","الرشدي","","","","","Baghdad","بغداد","amenity","bureau_de_change","بغداد","بغداد","","","","","","33.323119","44.353527","","OpenStreetMap"
"IQ003242","د.حيدر حكمت اطيمش","","","","","","Baghdad","بغداد","amenity","doctors","Baghdad","Baghdad","","","","","","33.329585","44.346219","","OpenStreetMap"
"IQ003243","عيادة الدكتور علي سعد العبيدي","","","","","","Baghdad","بغداد","amenity","hospital","شارع سعد بن ابي وقاص, baghdad","baghdad","","","","","","33.328942","44.346142","","OpenStreetMap"
"IQ003244","المركز البيطري التخصصي - الدكتورة وجدان","","","","","","Baghdad","بغداد","amenity","veterinary","شارع اللقاء - مقابل كاتب العدل, Baghdad","Baghdad","","","","","","33.329196","44.347393","","OpenStreetMap"
"IQ003245","المركز التخصصي البيطري- د. وجدان","","","","","","Baghdad","بغداد","amenity","veterinary","شارع اللقاء- مقابل كاتب العدل, Baghdad","Baghdad","","","","","","33.329172","44.347175","","OpenStreetMap"
"IQ003264","مدرسة ايشق بغداد الدولية","","Baghdad ishik international school","قوتابخانەی ئیشقی بەغدادی نێودەوڵەتی","","","Baghdad","بغداد","amenity","school","شارع حي العدل, Baghdad","Baghdad","","baghdad.international@stirlingschools.co.uk","","","","33.336565","44.318902","","OpenStreetMap"
"IQ003276","مختبري","مختبري","laboratory","mukhtabar","","","Baghdad","بغداد","amenity","doctors","شارع الربيعي, Baghdad","Baghdad","http://mudharalsalihi@yahoo.com","mudharalsalihi@yahoo.com","","","","33.344699","44.315623","","OpenStreetMap"
"IQ003283","العهد الجديد","العهد الجديد","","","","","Baghdad","بغداد","amenity","bureau_de_change","بغداد","بغداد","","","","","","33.347918","44.317271","","OpenStreetMap"
"IQ003284","النواب","النواب","","","","","Baghdad","بغداد","amenity","bureau_de_change","بغداد","بغداد","","","","","","33.347016","44.320245","","OpenStreetMap"
"IQ003306","مطعم زنكر هاوس","","for fast food","","","","Baghdad","بغداد","amenity","restaurant","شارع مشجر, Baghdad","Baghdad","","","","","","33.349095","44.314972","","OpenStreetMap"
"IQ003309","الجعفري","الجعفري","","","","","Baghdad","بغداد","amenity","bureau_de_change","بغداد","بغداد","","","","","","33.348876","44.313363","","OpenStreetMap"
"IQ003310","ياهلا","ياهلا","","","","","Baghdad","بغداد","amenity","bureau_de_change","بغداد","بغداد","","","","","","33.354109","44.311155","","OpenStreetMap"
"IQ003318","مكتب ايرث ماكس لخدمات الانترنت","مكتب ايرث ماكس لخدمات الانترنت","EarthMax for Internet Services","","","","Baghdad","بغداد","amenity","internet_cafe","شارع الغاز, Baghdad","Baghdad","","","","","","33.3594","44.304683","","OpenStreetMap"
"IQ003319","علي الربيعي لخدمات الانترنت","علي الربيعي لخدمات الانترنت","","","","","Baghdad","بغداد","amenity","internet_cafe","شارع الغاز, Baghdad","Baghdad","","","","","","33.357324","44.307269","","OpenStreetMap"
"IQ003324","عباس نت","","Earthlink Abbas","","","","Baghdad","بغداد","amenity","internet_cafe","شارع 31, Baghdad","Baghdad","","Alhusainy.abbas@gmail.com","","","","33.36054","44.302562","","OpenStreetMap"
"IQ003326","علي السجاد","علي السجاد","","","","","Baghdad","بغداد","amenity","bureau_de_change","بغداد","بغداد","","","","","","33.358138","44.308731","","OpenStreetMap"
"IQ003339","مكتب السمو للبطاقه الذكيه Q card","مكتب السمو للبطاقه الذكيه Q card","","","","","Baghdad","بغداد","amenity","bureau_de_change","Baghdad","Baghdad","","","","","","33.354","44.3195","","OpenStreetMap"
"IQ003362","منفذ وسام حميد","","","","","","Baghdad","بغداد","amenity","bureau_de_change","بغداد","بغداد","","","","","","33.351028","44.319833","","OpenStreetMap"
"IQ003363","علي زهير","علي زهير","","","","","Baghdad","بغداد","amenity","bureau_de_change","بغداد","بغداد","","","","","","33.354558","44.3191","","OpenStreetMap"
"IQ003364","عطر الياسمين","عطر الياسمين","","","","","Baghdad","بغداد","amenity","bureau_de_change","بغداد","بغداد","","","","","","33.354251","44.317126","","OpenStreetMap"
"IQ003365","حسين الخياط","حسين الخياط","","","","","Baghdad","بغداد","amenity","bureau_de_change","بغداد","بغداد","","","","","","33.349295","44.316324","","OpenStreetMap"
"IQ003366","ابو فلوس","ابو فلوس","","","","","Baghdad","بغداد","amenity","bureau_de_change","بغداد","بغداد","","","","","","33.354458","44.319108","","OpenStreetMap"
"IQ003367","علاء حداد","علاء حداد","","","","","Baghdad","بغداد","amenity","bureau_de_change","بغداد","بغداد","","","","","","33.354227","44.319006","","OpenStreetMap"
"IQ003368","سنتر الحرية","سنتر الحرية","","","","","Baghdad","بغداد","amenity","bureau_de_change","بغداد","بغداد","","","","","","33.349295","44.316137","","OpenStreetMap"
"IQ003397","الدكتورة بشرئ جواد الشكرجي . نسائية وتوليد","","","","","","Baghdad","بغداد","amenity","clinic","Baghdad","Baghdad","","","","","","33.353501","44.32462","","OpenStreetMap"
"IQ003404","Banana مطعم","","","","","","Baghdad","بغداد","amenity","restaurant","Baghdad","Baghdad","","","","","","33.350191","44.327118","","OpenStreetMap"
"IQ003444","Loading لخدمات الانترنيت ( ابونورس )","","Loading for Internet Service","","","","Baghdad","بغداد","amenity","internet_cafe","شارع الصحة, Baghdad","Baghdad","","mustafaqotob@gmail.com","","","","33.360722","44.324344","","OpenStreetMap"
"IQ003445","مذخر سماالابداع","مذخر سماالابداع","","مذخر سماالابداع","","","Baghdad","بغداد","amenity","pharmacy","شارع الثالثه, Baghdad","Baghdad","","","","","","33.359269","44.326427","","OpenStreetMap"
"IQ003456","منفذ النزار","","","","","","Baghdad","بغداد","amenity","bureau_de_change","بغداد","بغداد","","","","","","33.354944","44.326639","","OpenStreetMap"
"IQ003457","النزار","النزار","","","","","Baghdad","بغداد","amenity","bureau_de_change","بغداد","بغداد","","","","","","33.355125","44.326596","","OpenStreetMap"
"IQ003458","اوراق الزيتون","اوراق الزيتون","","","","","Baghdad","بغداد","amenity","bureau_de_change","بغداد","بغداد","","","","","","33.355141","44.326388","","OpenStreetMap"
"IQ003459","دندون","دندون","","","","","Baghdad","بغداد","amenity","bureau_de_change","بغداد","بغداد","","","","","","33.358261","44.323666","","OpenStreetMap"
"IQ003460","لقاء المدينة","لقاء المدينة","","","","","Baghdad","بغداد","amenity","bureau_de_change","بغداد","بغداد","","","","","","33.354923","44.325735","","OpenStreetMap"
"IQ003461","البستان","البستان","","","","","Baghdad","بغداد","amenity","bureau_de_change","بغداد","بغداد","","","","","","33.359601","44.326842","","OpenStreetMap"
"IQ003462","مختار الحرية","مختار الحرية","","","","","Baghdad","بغداد","amenity","bureau_de_change","بغداد","بغداد","","","","","","33.355179","44.326944","","OpenStreetMap"
"IQ003463","المولى","المولى","","","","","Baghdad","بغداد","amenity","bureau_de_change","بغداد","بغداد","","","","","","33.354865","44.326321","","OpenStreetMap"
"IQ003464","ضفاف بغداد","ضفاف بغداد","","","","","Baghdad","بغداد","amenity","bureau_de_change","بغداد","بغداد","","","","","","33.355134","44.326517","","OpenStreetMap"
"IQ003465","الرزاق","الرزاق","","","","","Baghdad","بغداد","amenity","bureau_de_change","بغداد","بغداد","","","","","","33.354748","44.326257","","OpenStreetMap"
"IQ003466","الهجران","الهجران","","","","","Baghdad","بغداد","amenity","bureau_de_change","بغداد","بغداد","","","","","","33.360145","44.323225","","OpenStreetMap"
"IQ003467","الحاج سمير","الحاج سمير","","","","","Baghdad","بغداد","amenity","bureau_de_change","بغداد","بغداد","","","","","","33.360564","44.328234","","OpenStreetMap"
"IQ003468","هيباب","هيباب","","","","","Baghdad","بغداد","amenity","bureau_de_change","بغداد","بغداد","","","","","","33.354884","44.326647","","OpenStreetMap"
"IQ003508","مكتب واي فاي للانتريت","","","","","","Baghdad","بغداد","amenity","internet_cafe","Baghdad","Baghdad","","","","","","33.345694","44.335584","","OpenStreetMap"
"IQ003516","رضاوي","رضاوي","","","","","Baghdad","بغداد","amenity","bureau_de_change","بغداد","بغداد","","","","","","33.342164","44.33771","","OpenStreetMap"
"IQ003517","الوالي","الوالي","","","","","Baghdad","بغداد","amenity","bureau_de_change","بغداد","بغداد","","","","","","33.345645","44.335467","","OpenStreetMap"
"IQ003518","ابناء الطوبجي","ابناء الطوبجي","","","","","Baghdad","بغداد","amenity","bureau_de_change","بغداد","بغداد","","","","","","33.345564","44.335387","","OpenStreetMap"
"IQ003519","ابو بلال","ابو بلال","","","","","Baghdad","بغداد","amenity","bureau_de_change","بغداد","بغداد","","","","","","33.345804","44.335625","","OpenStreetMap"
